 Wiadomosc od klienta:b'mid:-2;x:-200;y:-200;z:-200;mpry:0,0,0;pitch:0;roll:0;yaw:-47;vgx:0;vgy:0;vgz:0;templ:94;temph:95;tof:10;h:0;bat:51;baro:90.91;time:0;agx:4.00;agy:2.00;agz:-997.00;\r\n'
Adres IP klienta:('192.168.1.197', 8889)
 Wiadomosc od klienta:b'mid:-2;x:-200;y:-200;z:-200;mpry:0,0,0;pitch:0;roll:0;yaw:-47;vgx:0;vgy:0;vgz:0;templ:94;temph:95;tof:10;h:0;bat:51;baro:90.89;time:0;agx:5.00;agy:2.00;agz:-1002.00;\r\n'
Adres IP klienta:('192.168.1.197', 8889)
 Wiadomosc od klienta:b'mid:-2;x:-200;y:-200;z:-200;mpry:0,0,0;pitch:0;roll:0;yaw:-47;vgx:0;vgy:0;vgz:0;templ:94;temph:95;tof:10;h:0;bat:51;baro:90.91;time:0;agx:3.00;agy:1.00;agz:-999.00;\r\n'
Adres IP klienta:('192.168.1.197', 8889)
 Wiadomosc od klienta:b'mid:-2;x:-200;y:-200;z:-200;mpry:0,0,0;pitch:0;roll:0;yaw:-47;vgx:0;vgy:0;vgz:0;templ:94;temph:95;tof:10;h:0;bat:51;baro:90.88;time:0;agx:3.00;agy:0.00;agz:-1001.00;\r\n'
Adres IP klienta:('192.168.1.197', 8889)
 Wiadomosc od klienta:b'mid:-2;x:-200;y:-200;z:-200;mpry:0,0,0;pitch:0;roll:0;yaw:-47;vgx:0;vgy:0;vgz:0;templ:94;temph:95;tof:10;h:0;bat:51;baro:90.91;time:0;agx:2.00;agy:2.00;agz:-1000.00;\r\n'
Adres IP klienta:('192.168.1.197', 8889)
 Wiadomosc od klienta:b'mid:-2;x:-200;y:-200;z:-200;mpry:0,0,0;pitch:0;roll:0;yaw:-47;vgx:0;vgy:0;vgz:0;templ:94;temph:95;tof:10;h:0;bat:51;baro:90.91;time:0;agx:7.00;agy:2.00;agz:-999.00;\r\n'
Adres IP klienta:('192.168.1.197', 8889)
 Wiadomosc od klienta:b'mid:-2;x:-200;y:-200;z:-200;mpry:0,0,0;pitch:0;roll:0;yaw:-47;vgx:0;vgy:0;vgz:0;templ:94;temph:95;tof:10;h:0;bat:51;baro:90.90;time:0;agx:3.00;agy:3.00;agz:-998.00;\r\n'
Adres IP klienta:('192.168.1.197', 8889)
 Wiadomosc od klienta:b'mid:-2;x:-200;y:-200;z:-200;mpry:0,0,0;pitch:0;roll:0;yaw:-47;vgx:0;vgy:0;vgz:0;templ:94;temph:95;tof:10;h:0;bat:51;baro:90.89;time:0;agx:4.00;agy:-1.00;agz:-1000.00;\r\n'
Adres IP klienta:('192.168.1.197', 8889)
 Wiadomosc od klienta:b'mid:-2;x:-200;y:-200;z:-200;mpry:0,0,0;pitch:0;roll:0;yaw:-47;vgx:0;vgy:0;vgz:0;templ:94;temph:95;tof:10;h:0;bat:51;baro:90.91;time:0;agx:5.00;agy:4.00;agz:-1001.00;\r\n'
Adres IP klienta:('192.168.1.197', 8889)
 Wiadomosc od klienta:b'mid:-2;x:-200;y:-200;z:-200;mpry:0,0,0;pitch:0;roll:0;yaw:-47;vgx:0;vgy:0;vgz:0;templ:94;temph:95;tof:10;h:0;bat:51;baro:90.88;time:0;agx:4.00;agy:0.00;agz:-1000.00;\r\n'
Adres IP klienta:('192.168.1.197', 8889)
 Wiadomosc od klienta:b'mid:-2;x:-200;y:-200;z:-200;mpry:0,0,0;pitch:0;roll:0;yaw:-47;vgx:0;vgy:0;vgz:0;templ:94;temph:95;tof:10;h:0;bat:51;baro:90.87;time:0;agx:5.00;agy:0.00;agz:-1000.00;\r\n'
Adres IP klienta:('192.168.1.197', 8889)
 Wiadomosc od klienta:b'mid:-2;x:-200;y:-200;z:-200;mpry:0,0,0;pitch:0;roll:0;yaw:-47;vgx:0;vgy:0;vgz:0;templ:94;temph:95;tof:10;h:0;bat:51;baro:90.91;time:0;agx:4.00;agy:1.00;agz:-998.00;\r\n'
Adres IP klienta:('192.168.1.197', 8889)
 Wiadomosc od klienta:b'mid:-2;x:-200;y:-200;z:-200;mpry:0,0,0;pitch:0;roll:0;yaw:-47;vgx:0;vgy:0;vgz:0;templ:94;temph:95;tof:10;h:0;bat:51;baro:90.95;time:0;agx:3.00;agy:0.00;agz:-999.00;\r\n'
Adres IP klienta:('192.168.1.197', 8889)
 Wiadomosc od klienta:b'mid:-2;x:-200;y:-200;z:-200;mpry:0,0,0;pitch:0;roll:0;yaw:-47;vgx:0;vgy:0;vgz:0;templ:93;temph:96;tof:10;h:0;bat:51;baro:90.88;time:0;agx:3.00;agy:1.00;agz:-1000.00;\r\n'
Adres IP klienta:('192.168.1.197', 8889)
 Wiadomosc od klienta:b'mid:-2;x:-200;y:-200;z:-200;mpry:0,0,0;pitch:0;roll:0;yaw:-47;vgx:0;vgy:0;vgz:0;templ:93;temph:96;tof:10;h:0;bat:51;baro:90.91;time:0;agx:3.00;agy:2.00;agz:-1001.00;\r\n'
Adres IP klienta:('192.168.1.197', 8889)
 Wiadomosc od klienta:b'mid:-2;x:-200;y:-200;z:-200;mpry:0,0,0;pitch:0;roll:0;yaw:-47;vgx:0;vgy:0;vgz:0;templ:93;temph:96;tof:10;h:0;bat:51;baro:90.84;time:0;agx:5.00;agy:1.00;agz:-998.00;\r\n'
Adres IP klienta:('192.168.1.197', 8889)
 Wiadomosc od klienta:b'mid:-2;x:-200;y:-200;z:-200;mpry:0,0,0;pitch:0;roll:0;yaw:-47;vgx:0;vgy:0;vgz:0;templ:93;temph:96;tof:10;h:0;bat:51;baro:90.90;time:0;agx:3.00;agy:1.00;agz:-1001.00;\r\n'
Adres IP klienta:('192.168.1.197', 8889)
 Wiadomosc od klienta:b'mid:-2;x:-200;y:-200;z:-200;mpry:0,0,0;pitch:0;roll:0;yaw:-47;vgx:0;vgy:0;vgz:0;templ:93;temph:96;tof:10;h:0;bat:51;baro:90.87;time:0;agx:4.00;agy:1.00;agz:-1000.00;\r\n'
Adres IP klienta:('192.168.1.197', 8889)
 Wiadomosc od klienta:b'mid:-2;x:-200;y:-200;z:-200;mpry:0,0,0;pitch:0;roll:0;yaw:-47;vgx:0;vgy:0;vgz:0;templ:93;temph:96;tof:10;h:0;bat:51;baro:90.92;time:0;agx:3.00;agy:0.00;agz:-999.00;\r\n'
Adres IP klienta:('192.168.1.197', 8889)
 Wiadomosc od klienta:b'mid:-2;x:-200;y:-200;z:-200;mpry:0,0,0;pitch:0;roll:0;yaw:-47;vgx:0;vgy:0;vgz:0;templ:93;temph:96;tof:10;h:0;bat:51;baro:90.86;time:0;agx:6.00;agy:3.00;agz:-1000.00;\r\n'
Adres IP klienta:('192.168.1.197', 8889)
 Wiadomosc od klienta:b'mid:-2;x:-200;y:-200;z:-200;mpry:0,0,0;pitch:0;roll:0;yaw:-47;vgx:0;vgy:0;vgz:0;templ:93;temph:96;tof:10;h:0;bat:51;baro:90.91;time:0;agx:5.00;agy:4.00;agz:-1000.00;\r\n'
Adres IP klienta:('192.168.1.197', 8889)
 Wiadomosc od klienta:b'mid:-2;x:-200;y:-200;z:-200;mpry:0,0,0;pitch:0;roll:0;yaw:-47;vgx:0;vgy:0;vgz:0;templ:93;temph:96;tof:10;h:0;bat:51;baro:90.86;time:0;agx:5.00;agy:1.00;agz:-999.00;\r\n'
Adres IP klienta:('192.168.1.197', 8889)
 Wiadomosc od klienta:b'mid:-2;x:-200;y:-200;z:-200;mpry:0,0,0;pitch:0;roll:0;yaw:-47;vgx:0;vgy:0;vgz:0;templ:93;temph:96;tof:10;h:0;bat:51;baro:90.88;time:0;agx:5.00;agy:1.00;agz:-1000.00;\r\n'
Adres IP klienta:('192.168.1.197', 8889)
 Wiadomosc od klienta:b'mid:-2;x:-200;y:-200;z:-200;mpry:0,0,0;pitch:0;roll:0;yaw:-47;vgx:0;vgy:0;vgz:0;templ:94;temph:96;tof:10;h:0;bat:51;baro:90.87;time:0;agx:3.00;agy:1.00;agz:-1000.00;\r\n'
Adres IP klienta:('192.168.1.197', 8889)
 Wiadomosc od klienta:b'mid:-2;x:-200;y:-200;z:-200;mpry:0,0,0;pitch:0;roll:0;yaw:-47;vgx:0;vgy:0;vgz:0;templ:94;temph:96;tof:10;h:0;bat:51;baro:90.88;time:0;agx:7.00;agy:3.00;agz:-1001.00;\r\n'
Adres IP klienta:('192.168.1.197', 8889)
 Wiadomosc od klienta:b'mid:-2;x:-200;y:-200;z:-200;mpry:0,0,0;pitch:0;roll:0;yaw:-47;vgx:0;vgy:0;vgz:0;templ:94;temph:96;tof:10;h:0;bat:51;baro:90.86;time:0;agx:4.00;agy:1.00;agz:-999.00;\r\n'
Adres IP klienta:('192.168.1.197', 8889)
 Wiadomosc od klienta:b'mid:-2;x:-200;y:-200;z:-200;mpry:0,0,0;pitch:0;roll:0;yaw:-47;vgx:0;vgy:0;vgz:0;templ:94;temph:96;tof:10;h:0;bat:51;baro:90.91;time:0;agx:4.00;agy:0.00;agz:-1000.00;\r\n'
Adres IP klienta:('192.168.1.197', 8889)
 Wiadomosc od klienta:b'mid:-2;x:-200;y:-200;z:-200;mpry:0,0,0;pitch:0;roll:0;yaw:-47;vgx:0;vgy:0;vgz:0;templ:94;temph:96;tof:10;h:0;bat:51;baro:90.87;time:0;agx:3.00;agy:0.00;agz:-1001.00;\r\n'
Adres IP klienta:('192.168.1.197', 8889)
 Wiadomosc od klienta:b'mid:-2;x:-200;y:-200;z:-200;mpry:0,0,0;pitch:0;roll:0;yaw:-47;vgx:0;vgy:0;vgz:0;templ:94;temph:96;tof:10;h:0;bat:51;baro:90.90;time:0;agx:5.00;agy:1.00;agz:-1001.00;\r\n'
Adres IP klienta:('192.168.1.197', 8889)
 Wiadomosc od klienta:b'mid:-2;x:-200;y:-200;z:-200;mpry:0,0,0;pitch:0;roll:0;yaw:-47;vgx:0;vgy:0;vgz:0;templ:94;temph:96;tof:10;h:0;bat:51;baro:90.89;time:0;agx:2.00;agy:-2.00;agz:-1001.00;\r\n'
Adres IP klienta:('192.168.1.197', 8889)
 Wiadomosc od klienta:b'mid:-2;x:-200;y:-200;z:-200;mpry:0,0,0;pitch:0;roll:0;yaw:-47;vgx:0;vgy:0;vgz:0;templ:94;temph:96;tof:10;h:0;bat:51;baro:90.90;time:0;agx:6.00;agy:11.00;agz:-1000.00;\r\n'
Adres IP klienta:('192.168.1.197', 8889)
 Wiadomosc od klienta:b'mid:-2;x:-200;y:-200;z:-200;mpry:0,0,0;pitch:0;roll:0;yaw:-47;vgx:0;vgy:0;vgz:0;templ:94;temph:96;tof:10;h:0;bat:51;baro:90.90;time:0;agx:-1.00;agy:-7.00;agz:-1000.00;\r\n'
Adres IP klienta:('192.168.1.197', 8889)
 Wiadomosc od klienta:b'mid:-2;x:-200;y:-200;z:-200;mpry:0,0,0;pitch:0;roll:0;yaw:-47;vgx:0;vgy:0;vgz:0;templ:94;temph:96;tof:10;h:0;bat:51;baro:90.90;time:0;agx:3.00;agy:6.00;agz:-1001.00;\r\n'
Adres IP klienta:('192.168.1.197', 8889)
 Wiadomosc od klienta:b'mid:-2;x:-200;y:-200;z:-200;mpry:0,0,0;pitch:0;roll:0;yaw:-47;vgx:0;vgy:0;vgz:0;templ:94;temph:96;tof:10;h:0;bat:51;baro:90.90;time:0;agx:3.00;agy:-3.00;agz:-997.00;\r\n'
Adres IP klienta:('192.168.1.197', 8889)
 Wiadomosc od klienta:b'mid:-2;x:-200;y:-200;z:-200;mpry:0,0,0;pitch:0;roll:0;yaw:-47;vgx:0;vgy:0;vgz:0;templ:94;temph:96;tof:10;h:0;bat:51;baro:90.90;time:0;agx:6.00;agy:3.00;agz:-1002.00;\r\n'
Adres IP klienta:('192.168.1.197', 8889)
 Wiadomosc od klienta:b'mid:-2;x:-200;y:-200;z:-200;mpry:0,0,0;pitch:0;roll:0;yaw:-47;vgx:0;vgy:0;vgz:0;templ:94;temph:96;tof:10;h:0;bat:51;baro:90.94;time:0;agx:3.00;agy:5.00;agz:-996.00;\r\n'
Adres IP klienta:('192.168.1.197', 8889)
 Wiadomosc od klienta:b'mid:-2;x:-200;y:-200;z:-200;mpry:0,0,0;pitch:0;roll:0;yaw:-47;vgx:0;vgy:0;vgz:0;templ:94;temph:96;tof:10;h:0;bat:51;baro:90.94;time:0;agx:5.00;agy:-1.00;agz:-999.00;\r\n'
Adres IP klienta:('192.168.1.197', 8889)
 Wiadomosc od klienta:b'mid:-2;x:-200;y:-200;z:-200;mpry:0,0,0;pitch:0;roll:0;yaw:-47;vgx:0;vgy:0;vgz:0;templ:94;temph:96;tof:10;h:0;bat:51;baro:90.92;time:0;agx:8.00;agy:6.00;agz:-1001.00;\r\n'
Adres IP klienta:('192.168.1.197', 8889)
 Wiadomosc od klienta:b'mid:-2;x:-200;y:-200;z:-200;mpry:0,0,0;pitch:0;roll:0;yaw:-47;vgx:0;vgy:0;vgz:0;templ:94;temph:96;tof:10;h:0;bat:51;baro:90.91;time:0;agx:5.00;agy:2.00;agz:-1000.00;\r\n'
Adres IP klienta:('192.168.1.197', 8889)
 Wiadomosc od klienta:b'mid:-2;x:-200;y:-200;z:-200;mpry:0,0,0;pitch:0;roll:0;yaw:-47;vgx:0;vgy:0;vgz:0;templ:94;temph:96;tof:10;h:0;bat:51;baro:90.90;time:0;agx:5.00;agy:0.00;agz:-999.00;\r\n'
Adres IP klienta:('192.168.1.197', 8889)
 Wiadomosc od klienta:b'mid:-2;x:-200;y:-200;z:-200;mpry:0,0,0;pitch:0;roll:0;yaw:-47;vgx:0;vgy:0;vgz:0;templ:94;temph:96;tof:10;h:0;bat:51;baro:90.93;time:0;agx:4.00;agy:0.00;agz:-1001.00;\r\n'
Adres IP klienta:('192.168.1.197', 8889)
 Wiadomosc od klienta:b'mid:-2;x:-200;y:-200;z:-200;mpry:0,0,0;pitch:0;roll:0;yaw:-47;vgx:0;vgy:0;vgz:0;templ:94;temph:96;tof:10;h:0;bat:51;baro:90.92;time:0;agx:5.00;agy:8.00;agz:-999.00;\r\n'
Adres IP klienta:('192.168.1.197', 8889)
 Wiadomosc od klienta:b'mid:-2;x:-200;y:-200;z:-200;mpry:0,0,0;pitch:0;roll:0;yaw:-47;vgx:0;vgy:0;vgz:0;templ:94;temph:96;tof:10;h:0;bat:51;baro:90.90;time:0;agx:5.00;agy:-1.00;agz:-999.00;\r\n'
Adres IP klienta:('192.168.1.197', 8889)
 Wiadomosc od klienta:b'mid:-2;x:-200;y:-200;z:-200;mpry:0,0,0;pitch:0;roll:0;yaw:-47;vgx:0;vgy:0;vgz:0;templ:94;temph:96;tof:10;h:0;bat:51;baro:90.87;time:0;agx:0.00;agy:1.00;agz:-1003.00;\r\n'
Adres IP klienta:('192.168.1.197', 8889)
 Wiadomosc od klienta:b'mid:-2;x:-200;y:-200;z:-200;mpry:0,0,0;pitch:0;roll:0;yaw:-47;vgx:0;vgy:0;vgz:0;templ:94;temph:96;tof:10;h:0;bat:51;baro:90.87;time:0;agx:4.00;agy:2.00;agz:-1000.00;\r\n'
Adres IP klienta:('192.168.1.197', 8889)
 Wiadomosc od klienta:b'mid:-2;x:-200;y:-200;z:-200;mpry:0,0,0;pitch:0;roll:0;yaw:-47;vgx:0;vgy:0;vgz:0;templ:94;temph:96;tof:10;h:0;bat:51;baro:90.90;time:0;agx:4.00;agy:4.00;agz:-1000.00;\r\n'
Adres IP klienta:('192.168.1.197', 8889)
 Wiadomosc od klienta:b'mid:-2;x:-200;y:-200;z:-200;mpry:0,0,0;pitch:0;roll:0;yaw:-47;vgx:0;vgy:0;vgz:0;templ:94;temph:96;tof:10;h:0;bat:51;baro:90.91;time:0;agx:2.00;agy:0.00;agz:-999.00;\r\n'
Adres IP klienta:('192.168.1.197', 8889)
 Wiadomosc od klienta:b'mid:-2;x:-200;y:-200;z:-200;mpry:0,0,0;pitch:0;roll:0;yaw:-47;vgx:0;vgy:0;vgz:0;templ:94;temph:96;tof:10;h:0;bat:51;baro:90.92;time:0;agx:0.00;agy:1.00;agz:-1000.00;\r\n'
Adres IP klienta:('192.168.1.197', 8889)
 Wiadomosc od klienta:b'mid:-2;x:-200;y:-200;z:-200;mpry:0,0,0;pitch:0;roll:0;yaw:-47;vgx:0;vgy:0;vgz:0;templ:94;temph:96;tof:10;h:0;bat:51;baro:90.92;time:0;agx:10.00;agy:3.00;agz:-1000.00;\r\n'
Adres IP klienta:('192.168.1.197', 8889)
 Wiadomosc od klienta:b'mid:-2;x:-200;y:-200;z:-200;mpry:0,0,0;pitch:0;roll:0;yaw:-47;vgx:0;vgy:0;vgz:0;templ:94;temph:96;tof:10;h:0;bat:51;baro:90.90;time:0;agx:7.00;agy:1.00;agz:-999.00;\r\n'
Adres IP klienta:('192.168.1.197', 8889)
 Wiadomosc od klienta:b'mid:-2;x:-200;y:-200;z:-200;mpry:0,0,0;pitch:0;roll:0;yaw:-47;vgx:0;vgy:0;vgz:0;templ:94;temph:96;tof:10;h:0;bat:51;baro:90.90;time:0;agx:2.00;agy:2.00;agz:-996.00;\r\n'
Adres IP klienta:('192.168.1.197', 8889)
 Wiadomosc od klienta:b'mid:-2;x:-200;y:-200;z:-200;mpry:0,0,0;pitch:0;roll:0;yaw:-47;vgx:0;vgy:0;vgz:0;templ:94;temph:96;tof:10;h:0;bat:51;baro:90.85;time:0;agx:5.00;agy:0.00;agz:-998.00;\r\n'
Adres IP klienta:('192.168.1.197', 8889)
 Wiadomosc od klienta:b'mid:-2;x:-200;y:-200;z:-200;mpry:0,0,0;pitch:0;roll:0;yaw:-47;vgx:0;vgy:0;vgz:0;templ:94;temph:96;tof:10;h:0;bat:51;baro:90.88;time:0;agx:5.00;agy:4.00;agz:-998.00;\r\n'
Adres IP klienta:('192.168.1.197', 8889)
 Wiadomosc od klienta:b'mid:-2;x:-200;y:-200;z:-200;mpry:0,0,0;pitch:0;roll:0;yaw:-47;vgx:0;vgy:0;vgz:0;templ:94;temph:96;tof:10;h:0;bat:51;baro:90.86;time:0;agx:5.00;agy:0.00;agz:-998.00;\r\n'
Adres IP klienta:('192.168.1.197', 8889)
 Wiadomosc od klienta:b'mid:-2;x:-200;y:-200;z:-200;mpry:0,0,0;pitch:0;roll:0;yaw:-47;vgx:0;vgy:0;vgz:0;templ:94;temph:96;tof:10;h:0;bat:50;baro:90.88;time:0;agx:0.00;agy:3.00;agz:-999.00;\r\n'
Adres IP klienta:('192.168.1.197', 8889)
 Wiadomosc od klienta:b'mid:-2;x:-200;y:-200;z:-200;mpry:0,0,0;pitch:0;roll:0;yaw:-47;vgx:0;vgy:0;vgz:0;templ:94;temph:96;tof:10;h:0;bat:50;baro:90.91;time:0;agx:2.00;agy:1.00;agz:-1000.00;\r\n'
Adres IP klienta:('192.168.1.197', 8889)
 Wiadomosc od klienta:b'mid:-2;x:-200;y:-200;z:-200;mpry:0,0,0;pitch:0;roll:0;yaw:-47;vgx:0;vgy:0;vgz:0;templ:94;temph:96;tof:10;h:0;bat:50;baro:90.91;time:0;agx:5.00;agy:1.00;agz:-1000.00;\r\n'
Adres IP klienta:('192.168.1.197', 8889)
 Wiadomosc od klienta:b'mid:-2;x:-200;y:-200;z:-200;mpry:0,0,0;pitch:0;roll:0;yaw:-47;vgx:0;vgy:0;vgz:0;templ:94;temph:96;tof:10;h:0;bat:50;baro:90.88;time:0;agx:4.00;agy:0.00;agz:-1000.00;\r\n'
Adres IP klienta:('192.168.1.197', 8889)
 Wiadomosc od klienta:b'mid:-2;x:-200;y:-200;z:-200;mpry:0,0,0;pitch:0;roll:0;yaw:-47;vgx:0;vgy:0;vgz:0;templ:94;temph:96;tof:10;h:0;bat:50;baro:90.91;time:0;agx:1.00;agy:3.00;agz:-999.00;\r\n'
Adres IP klienta:('192.168.1.197', 8889)
 Wiadomosc od klienta:b'mid:-2;x:-200;y:-200;z:-200;mpry:0,0,0;pitch:0;roll:0;yaw:-47;vgx:0;vgy:0;vgz:0;templ:94;temph:96;tof:10;h:0;bat:50;baro:90.91;time:0;agx:-2.00;agy:0.00;agz:-1000.00;\r\n'
Adres IP klienta:('192.168.1.197', 8889)
 Wiadomosc od klienta:b'mid:-2;x:-200;y:-200;z:-200;mpry:0,0,0;pitch:0;roll:0;yaw:-47;vgx:0;vgy:0;vgz:0;templ:94;temph:96;tof:10;h:0;bat:50;baro:90.92;time:0;agx:-1.00;agy:2.00;agz:-1003.00;\r\n'
Adres IP klienta:('192.168.1.197', 8889)
 Wiadomosc od klienta:b'mid:-2;x:-200;y:-200;z:-200;mpry:0,0,0;pitch:0;roll:0;yaw:-47;vgx:0;vgy:0;vgz:0;templ:94;temph:96;tof:10;h:0;bat:50;baro:90.90;time:0;agx:7.00;agy:3.00;agz:-999.00;\r\n'
Adres IP klienta:('192.168.1.197', 8889)
 Wiadomosc od klienta:b'mid:-2;x:-200;y:-200;z:-200;mpry:0,0,0;pitch:0;roll:0;yaw:-47;vgx:0;vgy:0;vgz:0;templ:94;temph:96;tof:10;h:0;bat:50;baro:90.89;time:0;agx:0.00;agy:-2.00;agz:-1000.00;\r\n'
Adres IP klienta:('192.168.1.197', 8889)
 Wiadomosc od klienta:b'mid:-2;x:-200;y:-200;z:-200;mpry:0,0,0;pitch:0;roll:0;yaw:-47;vgx:0;vgy:0;vgz:0;templ:93;temph:96;tof:10;h:0;bat:50;baro:90.89;time:0;agx:6.00;agy:7.00;agz:-999.00;\r\n'
Adres IP klienta:('192.168.1.197', 8889)
 Wiadomosc od klienta:b'mid:-2;x:-200;y:-200;z:-200;mpry:0,0,0;pitch:0;roll:0;yaw:-47;vgx:0;vgy:0;vgz:0;templ:93;temph:96;tof:10;h:0;bat:50;baro:90.91;time:0;agx:5.00;agy:0.00;agz:-1001.00;\r\n'
Adres IP klienta:('192.168.1.197', 8889)
 Wiadomosc od klienta:b'mid:-2;x:-200;y:-200;z:-200;mpry:0,0,0;pitch:0;roll:0;yaw:-47;vgx:0;vgy:0;vgz:0;templ:93;temph:96;tof:10;h:0;bat:50;baro:90.88;time:0;agx:3.00;agy:2.00;agz:-997.00;\r\n'
Adres IP klienta:('192.168.1.197', 8889)
 Wiadomosc od klienta:b'mid:-2;x:-200;y:-200;z:-200;mpry:0,0,0;pitch:0;roll:0;yaw:-47;vgx:0;vgy:0;vgz:0;templ:93;temph:96;tof:10;h:0;bat:50;baro:90.90;time:0;agx:3.00;agy:1.00;agz:-1000.00;\r\n'
Adres IP klienta:('192.168.1.197', 8889)
 Wiadomosc od klienta:b'mid:-2;x:-200;y:-200;z:-200;mpry:0,0,0;pitch:0;roll:0;yaw:-47;vgx:0;vgy:0;vgz:0;templ:93;temph:96;tof:10;h:0;bat:50;baro:90.88;time:0;agx:8.00;agy:-1.00;agz:-1003.00;\r\n'
Adres IP klienta:('192.168.1.197', 8889)
 Wiadomosc od klienta:b'mid:-2;x:-200;y:-200;z:-200;mpry:0,0,0;pitch:0;roll:0;yaw:-47;vgx:0;vgy:0;vgz:0;templ:93;temph:96;tof:10;h:0;bat:50;baro:90.90;time:0;agx:0.00;agy:1.00;agz:-1000.00;\r\n'
Adres IP klienta:('192.168.1.197', 8889)
 Wiadomosc od klienta:b'mid:-2;x:-200;y:-200;z:-200;mpry:0,0,0;pitch:0;roll:0;yaw:-47;vgx:0;vgy:0;vgz:0;templ:93;temph:96;tof:10;h:0;bat:50;baro:90.97;time:0;agx:5.00;agy:3.00;agz:-1000.00;\r\n'
Adres IP klienta:('192.168.1.197', 8889)
 Wiadomosc od klienta:b'mid:-2;x:-200;y:-200;z:-200;mpry:0,0,0;pitch:0;roll:0;yaw:-47;vgx:0;vgy:0;vgz:0;templ:93;temph:96;tof:10;h:0;bat:50;baro:90.92;time:0;agx:6.00;agy:-2.00;agz:-1001.00;\r\n'
Adres IP klienta:('192.168.1.197', 8889)
 Wiadomosc od klienta:b'mid:-2;x:-200;y:-200;z:-200;mpry:0,0,0;pitch:0;roll:0;yaw:-47;vgx:0;vgy:0;vgz:0;templ:93;temph:96;tof:10;h:0;bat:50;baro:90.94;time:0;agx:1.00;agy:3.00;agz:-998.00;\r\n'
Adres IP klienta:('192.168.1.197', 8889)
 Wiadomosc od klienta:b'mid:-2;x:-200;y:-200;z:-200;mpry:0,0,0;pitch:0;roll:0;yaw:-47;vgx:0;vgy:0;vgz:0;templ:93;temph:96;tof:10;h:0;bat:50;baro:90.95;time:0;agx:3.00;agy:1.00;agz:-999.00;\r\n'
Adres IP klienta:('192.168.1.197', 8889)
 Wiadomosc od klienta:b'mid:-2;x:-200;y:-200;z:-200;mpry:0,0,0;pitch:0;roll:0;yaw:-47;vgx:0;vgy:0;vgz:0;templ:93;temph:96;tof:10;h:0;bat:50;baro:90.90;time:0;agx:3.00;agy:-1.00;agz:-1000.00;\r\n'
Adres IP klienta:('192.168.1.197', 8889)
 Wiadomosc od klienta:b'mid:-2;x:-200;y:-200;z:-200;mpry:0,0,0;pitch:0;roll:0;yaw:-47;vgx:0;vgy:0;vgz:0;templ:93;temph:96;tof:10;h:0;bat:50;baro:90.94;time:0;agx:3.00;agy:3.00;agz:-997.00;\r\n'
Adres IP klienta:('192.168.1.197', 8889)
 Wiadomosc od klienta:b'mid:-2;x:-200;y:-200;z:-200;mpry:0,0,0;pitch:0;roll:0;yaw:-47;vgx:0;vgy:0;vgz:0;templ:93;temph:96;tof:10;h:0;bat:50;baro:90.89;time:0;agx:1.00;agy:1.00;agz:-1000.00;\r\n'
Adres IP klienta:('192.168.1.197', 8889)
 Wiadomosc od klienta:b'mid:-2;x:-200;y:-200;z:-200;mpry:0,0,0;pitch:0;roll:0;yaw:-47;vgx:0;vgy:0;vgz:0;templ:93;temph:96;tof:10;h:0;bat:50;baro:90.94;time:0;agx:3.00;agy:3.00;agz:-1000.00;\r\n'
Adres IP klienta:('192.168.1.197', 8889)
 Wiadomosc od klienta:b'mid:-2;x:-200;y:-200;z:-200;mpry:0,0,0;pitch:0;roll:0;yaw:-47;vgx:0;vgy:0;vgz:0;templ:93;temph:96;tof:10;h:0;bat:50;baro:90.95;time:0;agx:5.00;agy:-2.00;agz:-1000.00;\r\n'
Adres IP klienta:('192.168.1.197', 8889)
 Wiadomosc od klienta:b'mid:-2;x:-200;y:-200;z:-200;mpry:0,0,0;pitch:0;roll:0;yaw:-47;vgx:0;vgy:0;vgz:0;templ:93;temph:96;tof:10;h:0;bat:50;baro:90.91;time:0;agx:2.00;agy:7.00;agz:-998.00;\r\n'
Adres IP klienta:('192.168.1.197', 8889)
 Wiadomosc od klienta:b'mid:-2;x:-200;y:-200;z:-200;mpry:0,0,0;pitch:0;roll:0;yaw:-47;vgx:0;vgy:0;vgz:0;templ:93;temph:96;tof:10;h:0;bat:50;baro:90.91;time:0;agx:4.00;agy:0.00;agz:-996.00;\r\n'
Adres IP klienta:('192.168.1.197', 8889)
 Wiadomosc od klienta:b'mid:-2;x:-200;y:-200;z:-200;mpry:0,0,0;pitch:0;roll:0;yaw:-47;vgx:0;vgy:0;vgz:0;templ:93;temph:96;tof:10;h:0;bat:50;baro:90.89;time:0;agx:4.00;agy:-2.00;agz:-999.00;\r\n'
Adres IP klienta:('192.168.1.197', 8889)
 Wiadomosc od klienta:b'mid:-2;x:-200;y:-200;z:-200;mpry:0,0,0;pitch:0;roll:0;yaw:-47;vgx:0;vgy:0;vgz:0;templ:93;temph:96;tof:10;h:0;bat:50;baro:90.93;time:0;agx:7.00;agy:5.00;agz:-999.00;\r\n'
Adres IP klienta:('192.168.1.197', 8889)
 Wiadomosc od klienta:b'mid:-2;x:-200;y:-200;z:-200;mpry:0,0,0;pitch:0;roll:0;yaw:-47;vgx:0;vgy:0;vgz:0;templ:93;temph:96;tof:10;h:0;bat:50;baro:90.91;time:0;agx:1.00;agy:0.00;agz:-999.00;\r\n'
Adres IP klienta:('192.168.1.197', 8889)
 Wiadomosc od klienta:b'mid:-2;x:-200;y:-200;z:-200;mpry:0,0,0;pitch:0;roll:0;yaw:-47;vgx:0;vgy:0;vgz:0;templ:94;temph:96;tof:10;h:0;bat:50;baro:90.91;time:0;agx:7.00;agy:2.00;agz:-999.00;\r\n'
Adres IP klienta:('192.168.1.197', 8889)
 Wiadomosc od klienta:b'mid:-2;x:-200;y:-200;z:-200;mpry:0,0,0;pitch:0;roll:0;yaw:-47;vgx:0;vgy:0;vgz:0;templ:94;temph:96;tof:10;h:0;bat:50;baro:90.91;time:0;agx:2.00;agy:0.00;agz:-1001.00;\r\n'
Adres IP klienta:('192.168.1.197', 8889)
 Wiadomosc od klienta:b'mid:-2;x:-200;y:-200;z:-200;mpry:0,0,0;pitch:0;roll:0;yaw:-47;vgx:0;vgy:0;vgz:0;templ:94;temph:96;tof:10;h:0;bat:50;baro:90.89;time:0;agx:4.00;agy:4.00;agz:-1000.00;\r\n'
Adres IP klienta:('192.168.1.197', 8889)
 Wiadomosc od klienta:b'mid:-2;x:-200;y:-200;z:-200;mpry:0,0,0;pitch:0;roll:0;yaw:-47;vgx:0;vgy:0;vgz:0;templ:94;temph:96;tof:10;h:0;bat:50;baro:90.90;time:0;agx:2.00;agy:1.00;agz:-1000.00;\r\n'
Adres IP klienta:('192.168.1.197', 8889)
 Wiadomosc od klienta:b'mid:-2;x:-200;y:-200;z:-200;mpry:0,0,0;pitch:0;roll:0;yaw:-47;vgx:0;vgy:0;vgz:0;templ:94;temph:96;tof:10;h:0;bat:50;baro:90.89;time:0;agx:1.00;agy:0.00;agz:-1000.00;\r\n'
Adres IP klienta:('192.168.1.197', 8889)
 Wiadomosc od klienta:b'mid:-2;x:-200;y:-200;z:-200;mpry:0,0,0;pitch:0;roll:0;yaw:-47;vgx:0;vgy:0;vgz:0;templ:94;temph:96;tof:10;h:0;bat:50;baro:90.86;time:0;agx:2.00;agy:0.00;agz:-1000.00;\r\n'
Adres IP klienta:('192.168.1.197', 8889)
 Wiadomosc od klienta:b'mid:-2;x:-200;y:-200;z:-200;mpry:0,0,0;pitch:0;roll:0;yaw:-47;vgx:0;vgy:0;vgz:0;templ:94;temph:96;tof:10;h:0;bat:50;baro:90.86;time:0;agx:3.00;agy:3.00;agz:-1000.00;\r\n'
Adres IP klienta:('192.168.1.197', 8889)
 Wiadomosc od klienta:b'mid:-2;x:-200;y:-200;z:-200;mpry:0,0,0;pitch:0;roll:0;yaw:-47;vgx:0;vgy:0;vgz:0;templ:94;temph:96;tof:10;h:0;bat:50;baro:90.89;time:0;agx:3.00;agy:0.00;agz:-998.00;\r\n'
Adres IP klienta:('192.168.1.197', 8889)
 Wiadomosc od klienta:b'mid:-2;x:-200;y:-200;z:-200;mpry:0,0,0;pitch:0;roll:0;yaw:-47;vgx:0;vgy:0;vgz:0;templ:94;temph:96;tof:10;h:0;bat:50;baro:90.90;time:0;agx:3.00;agy:1.00;agz:-999.00;\r\n'
Adres IP klienta:('192.168.1.197', 8889)
 Wiadomosc od klienta:b'mid:-2;x:-200;y:-200;z:-200;mpry:0,0,0;pitch:0;roll:0;yaw:-47;vgx:0;vgy:0;vgz:0;templ:94;temph:96;tof:10;h:0;bat:50;baro:90.91;time:0;agx:2.00;agy:1.00;agz:-999.00;\r\n'
Adres IP klienta:('192.168.1.197', 8889)
 Wiadomosc od klienta:b'mid:-2;x:-200;y:-200;z:-200;mpry:0,0,0;pitch:0;roll:0;yaw:-47;vgx:0;vgy:0;vgz:0;templ:94;temph:95;tof:10;h:0;bat:50;baro:90.88;time:0;agx:2.00;agy:2.00;agz:-998.00;\r\n'
Adres IP klienta:('192.168.1.197', 8889)
 Wiadomosc od klienta:b'mid:-2;x:-200;y:-200;z:-200;mpry:0,0,0;pitch:0;roll:0;yaw:-47;vgx:0;vgy:0;vgz:0;templ:94;temph:95;tof:10;h:0;bat:50;baro:90.87;time:0;agx:3.00;agy:2.00;agz:-998.00;\r\n'
Adres IP klienta:('192.168.1.197', 8889)
 Wiadomosc od klienta:b'mid:-2;x:-200;y:-200;z:-200;mpry:0,0,0;pitch:0;roll:0;yaw:-47;vgx:0;vgy:0;vgz:0;templ:94;temph:95;tof:10;h:0;bat:50;baro:90.89;time:0;agx:1.00;agy:2.00;agz:-999.00;\r\n'
Adres IP klienta:('192.168.1.197', 8889)
 Wiadomosc od klienta:b'mid:-2;x:-200;y:-200;z:-200;mpry:0,0,0;pitch:0;roll:0;yaw:-47;vgx:0;vgy:0;vgz:0;templ:94;temph:95;tof:10;h:0;bat:50;baro:90.88;time:0;agx:1.00;agy:0.00;agz:-1000.00;\r\n'
Adres IP klienta:('192.168.1.197', 8889)
 Wiadomosc od klienta:b'mid:-2;x:-200;y:-200;z:-200;mpry:0,0,0;pitch:0;roll:0;yaw:-47;vgx:0;vgy:0;vgz:0;templ:94;temph:95;tof:10;h:0;bat:50;baro:90.87;time:0;agx:2.00;agy:-2.00;agz:-998.00;\r\n'
Adres IP klienta:('192.168.1.197', 8889)
 Wiadomosc od klienta:b'mid:-2;x:-200;y:-200;z:-200;mpry:0,0,0;pitch:0;roll:0;yaw:-47;vgx:0;vgy:0;vgz:0;templ:94;temph:95;tof:10;h:0;bat:50;baro:90.91;time:0;agx:5.00;agy:4.00;agz:-1002.00;\r\n'
Adres IP klienta:('192.168.1.197', 8889)
 Wiadomosc od klienta:b'mid:-2;x:-200;y:-200;z:-200;mpry:0,0,0;pitch:0;roll:0;yaw:-47;vgx:0;vgy:0;vgz:0;templ:94;temph:95;tof:10;h:0;bat:50;baro:90.87;time:0;agx:2.00;agy:0.00;agz:-998.00;\r\n'
Adres IP klienta:('192.168.1.197', 8889)
 Wiadomosc od klienta:b'mid:-2;x:-200;y:-200;z:-200;mpry:0,0,0;pitch:0;roll:0;yaw:-47;vgx:0;vgy:0;vgz:0;templ:94;temph:95;tof:10;h:0;bat:50;baro:90.88;time:0;agx:2.00;agy:0.00;agz:-998.00;\r\n'
Adres IP klienta:('192.168.1.197', 8889)
 Wiadomosc od klienta:b'mid:-2;x:-200;y:-200;z:-200;mpry:0,0,0;pitch:0;roll:0;yaw:-47;vgx:0;vgy:0;vgz:0;templ:94;temph:95;tof:10;h:0;bat:50;baro:90.89;time:0;agx:5.00;agy:6.00;agz:-1002.00;\r\n'
Adres IP klienta:('192.168.1.197', 8889)
 Wiadomosc od klienta:b'mid:-2;x:-200;y:-200;z:-200;mpry:0,0,0;pitch:0;roll:0;yaw:-47;vgx:0;vgy:0;vgz:0;templ:94;temph:95;tof:10;h:0;bat:50;baro:90.86;time:0;agx:2.00;agy:-2.00;agz:-1002.00;\r\n'
Adres IP klienta:('192.168.1.197', 8889)
 Wiadomosc od klienta:b'mid:-2;x:-200;y:-200;z:-200;mpry:0,0,0;pitch:0;roll:0;yaw:-47;vgx:0;vgy:0;vgz:0;templ:95;temph:95;tof:10;h:0;bat:50;baro:90.89;time:0;agx:7.00;agy:4.00;agz:-1001.00;\r\n'
Adres IP klienta:('192.168.1.197', 8889)
 Wiadomosc od klienta:b'mid:-2;x:-200;y:-200;z:-200;mpry:0,0,0;pitch:0;roll:0;yaw:-47;vgx:0;vgy:0;vgz:0;templ:95;temph:95;tof:10;h:0;bat:50;baro:90.88;time:0;agx:3.00;agy:-1.00;agz:-1001.00;\r\n'
Adres IP klienta:('192.168.1.197', 8889)
 Wiadomosc od klienta:b'mid:-2;x:-200;y:-200;z:-200;mpry:0,0,0;pitch:0;roll:0;yaw:-47;vgx:0;vgy:0;vgz:0;templ:95;temph:95;tof:10;h:0;bat:50;baro:90.91;time:0;agx:1.00;agy:3.00;agz:-1000.00;\r\n'
Adres IP klienta:('192.168.1.197', 8889)
 Wiadomosc od klienta:b'mid:-2;x:-200;y:-200;z:-200;mpry:0,0,0;pitch:0;roll:0;yaw:-47;vgx:0;vgy:0;vgz:0;templ:95;temph:95;tof:10;h:0;bat:50;baro:90.89;time:0;agx:0.00;agy:0.00;agz:-1000.00;\r\n'
Adres IP klienta:('192.168.1.197', 8889)
 Wiadomosc od klienta:b'mid:-2;x:-200;y:-200;z:-200;mpry:0,0,0;pitch:0;roll:0;yaw:-47;vgx:0;vgy:0;vgz:0;templ:95;temph:95;tof:10;h:0;bat:50;baro:90.88;time:0;agx:1.00;agy:2.00;agz:-999.00;\r\n'
Adres IP klienta:('192.168.1.197', 8889)
 Wiadomosc od klienta:b'mid:-2;x:-200;y:-200;z:-200;mpry:0,0,0;pitch:0;roll:0;yaw:-47;vgx:0;vgy:0;vgz:0;templ:95;temph:95;tof:10;h:0;bat:50;baro:90.90;time:0;agx:1.00;agy:3.00;agz:-999.00;\r\n'
Adres IP klienta:('192.168.1.197', 8889)
 Wiadomosc od klienta:b'mid:-2;x:-200;y:-200;z:-200;mpry:0,0,0;pitch:0;roll:0;yaw:-47;vgx:0;vgy:0;vgz:0;templ:95;temph:95;tof:10;h:0;bat:50;baro:90.89;time:0;agx:0.00;agy:-3.00;agz:-1000.00;\r\n'
Adres IP klienta:('192.168.1.197', 8889)
 Wiadomosc od klienta:b'mid:-2;x:-200;y:-200;z:-200;mpry:0,0,0;pitch:0;roll:0;yaw:-47;vgx:0;vgy:0;vgz:0;templ:95;temph:95;tof:10;h:0;bat:50;baro:90.91;time:0;agx:4.00;agy:5.00;agz:-999.00;\r\n'
Adres IP klienta:('192.168.1.197', 8889)
 Wiadomosc od klienta:b'mid:-2;x:-200;y:-200;z:-200;mpry:0,0,0;pitch:0;roll:0;yaw:-47;vgx:0;vgy:0;vgz:0;templ:95;temph:95;tof:10;h:0;bat:50;baro:90.86;time:0;agx:3.00;agy:-2.00;agz:-1002.00;\r\n'
Adres IP klienta:('192.168.1.197', 8889)
 Wiadomosc od klienta:b'mid:-2;x:-200;y:-200;z:-200;mpry:0,0,0;pitch:0;roll:0;yaw:-47;vgx:0;vgy:0;vgz:0;templ:95;temph:95;tof:10;h:0;bat:50;baro:90.85;time:0;agx:4.00;agy:3.00;agz:-1001.00;\r\n'
Adres IP klienta:('192.168.1.197', 8889)
 Wiadomosc od klienta:b'mid:-2;x:-200;y:-200;z:-200;mpry:0,0,0;pitch:0;roll:0;yaw:-47;vgx:0;vgy:0;vgz:0;templ:94;temph:96;tof:10;h:0;bat:50;baro:90.86;time:0;agx:2.00;agy:1.00;agz:-998.00;\r\n'
Adres IP klienta:('192.168.1.197', 8889)
 Wiadomosc od klienta:b'mid:-2;x:-200;y:-200;z:-200;mpry:0,0,0;pitch:0;roll:0;yaw:-47;vgx:0;vgy:0;vgz:0;templ:94;temph:96;tof:10;h:0;bat:50;baro:90.90;time:0;agx:4.00;agy:0.00;agz:-998.00;\r\n'
Adres IP klienta:('192.168.1.197', 8889)
 Wiadomosc od klienta:b'mid:-2;x:-200;y:-200;z:-200;mpry:0,0,0;pitch:0;roll:0;yaw:-47;vgx:0;vgy:0;vgz:0;templ:94;temph:96;tof:10;h:0;bat:50;baro:90.88;time:0;agx:4.00;agy:0.00;agz:-1000.00;\r\n'
Adres IP klienta:('192.168.1.197', 8889)
 Wiadomosc od klienta:b'mid:-2;x:-200;y:-200;z:-200;mpry:0,0,0;pitch:0;roll:0;yaw:-47;vgx:0;vgy:0;vgz:0;templ:94;temph:96;tof:10;h:0;bat:50;baro:90.92;time:0;agx:1.00;agy:4.00;agz:-1002.00;\r\n'
Adres IP klienta:('192.168.1.197', 8889)
 Wiadomosc od klienta:b'mid:-2;x:-200;y:-200;z:-200;mpry:0,0,0;pitch:0;roll:0;yaw:-47;vgx:0;vgy:0;vgz:0;templ:94;temph:96;tof:10;h:0;bat:50;baro:90.87;time:0;agx:3.00;agy:0.00;agz:-1000.00;\r\n'
Adres IP klienta:('192.168.1.197', 8889)
 Wiadomosc od klienta:b'mid:-2;x:-200;y:-200;z:-200;mpry:0,0,0;pitch:0;roll:0;yaw:-47;vgx:0;vgy:0;vgz:0;templ:94;temph:96;tof:10;h:0;bat:50;baro:90.85;time:0;agx:3.00;agy:5.00;agz:-1000.00;\r\n'
Adres IP klienta:('192.168.1.197', 8889)
 Wiadomosc od klienta:b'mid:-2;x:-200;y:-200;z:-200;mpry:0,0,0;pitch:0;roll:0;yaw:-47;vgx:0;vgy:0;vgz:0;templ:94;temph:96;tof:10;h:0;bat:50;baro:90.85;time:0;agx:2.00;agy:-2.00;agz:-1000.00;\r\n'
Adres IP klienta:('192.168.1.197', 8889)
 Wiadomosc od klienta:b'mid:-2;x:-200;y:-200;z:-200;mpry:0,0,0;pitch:0;roll:0;yaw:-47;vgx:0;vgy:0;vgz:0;templ:94;temph:96;tof:10;h:0;bat:50;baro:90.82;time:0;agx:3.00;agy:4.00;agz:-1000.00;\r\n'
Adres IP klienta:('192.168.1.197', 8889)
 Wiadomosc od klienta:b'mid:-2;x:-200;y:-200;z:-200;mpry:0,0,0;pitch:0;roll:0;yaw:-47;vgx:0;vgy:0;vgz:0;templ:94;temph:96;tof:10;h:0;bat:50;baro:90.83;time:0;agx:3.00;agy:-2.00;agz:-1002.00;\r\n'
Adres IP klienta:('192.168.1.197', 8889)
 Wiadomosc od klienta:b'mid:-2;x:-200;y:-200;z:-200;mpry:0,0,0;pitch:0;roll:0;yaw:-47;vgx:0;vgy:0;vgz:0;templ:94;temph:96;tof:10;h:0;bat:50;baro:90.91;time:0;agx:4.00;agy:4.00;agz:-996.00;\r\n'
Adres IP klienta:('192.168.1.197', 8889)
 Wiadomosc od klienta:b'mid:-2;x:-200;y:-200;z:-200;mpry:0,0,0;pitch:0;roll:0;yaw:-47;vgx:0;vgy:0;vgz:0;templ:93;temph:96;tof:10;h:0;bat:50;baro:90.86;time:0;agx:3.00;agy:-1.00;agz:-999.00;\r\n'
Adres IP klienta:('192.168.1.197', 8889)
 Wiadomosc od klienta:b'mid:-2;x:-200;y:-200;z:-200;mpry:0,0,0;pitch:0;roll:0;yaw:-47;vgx:0;vgy:0;vgz:0;templ:93;temph:96;tof:10;h:0;bat:50;baro:90.88;time:0;agx:3.00;agy:1.00;agz:-998.00;\r\n'
Adres IP klienta:('192.168.1.197', 8889)
 Wiadomosc od klienta:b'mid:-2;x:-200;y:-200;z:-200;mpry:0,0,0;pitch:0;roll:0;yaw:-47;vgx:0;vgy:0;vgz:0;templ:93;temph:96;tof:10;h:0;bat:50;baro:90.86;time:0;agx:2.00;agy:0.00;agz:-999.00;\r\n'
Adres IP klienta:('192.168.1.197', 8889)
 Wiadomosc od klienta:b'mid:-2;x:-200;y:-200;z:-200;mpry:0,0,0;pitch:0;roll:0;yaw:-47;vgx:0;vgy:0;vgz:0;templ:93;temph:96;tof:10;h:0;bat:50;baro:90.89;time:0;agx:4.00;agy:3.00;agz:-1003.00;\r\n'
Adres IP klienta:('192.168.1.197', 8889)
 Wiadomosc od klienta:b'mid:-2;x:-200;y:-200;z:-200;mpry:0,0,0;pitch:0;roll:0;yaw:-47;vgx:0;vgy:0;vgz:0;templ:93;temph:96;tof:10;h:0;bat:50;baro:90.85;time:0;agx:-6.00;agy:1.00;agz:-1000.00;\r\n'
Adres IP klienta:('192.168.1.197', 8889)
 Wiadomosc od klienta:b'mid:-2;x:-200;y:-200;z:-200;mpry:0,0,0;pitch:0;roll:0;yaw:-47;vgx:0;vgy:0;vgz:0;templ:93;temph:96;tof:10;h:0;bat:50;baro:90.89;time:0;agx:18.00;agy:3.00;agz:-999.00;\r\n'
Adres IP klienta:('192.168.1.197', 8889)
 Wiadomosc od klienta:b'mid:-2;x:-200;y:-200;z:-200;mpry:0,0,0;pitch:0;roll:0;yaw:-47;vgx:0;vgy:0;vgz:0;templ:93;temph:96;tof:10;h:0;bat:50;baro:90.86;time:0;agx:22.00;agy:6.00;agz:-998.00;\r\n'
Adres IP klienta:('192.168.1.197', 8889)
 Wiadomosc od klienta:b'mid:-2;x:-200;y:-200;z:-200;mpry:0,0,0;pitch:0;roll:0;yaw:-47;vgx:0;vgy:0;vgz:0;templ:93;temph:96;tof:10;h:0;bat:50;baro:90.87;time:0;agx:3.00;agy:0.00;agz:-999.00;\r\n'
Adres IP klienta:('192.168.1.197', 8889)
 Wiadomosc od klienta:b'mid:-2;x:-200;y:-200;z:-200;mpry:0,0,0;pitch:0;roll:0;yaw:-47;vgx:0;vgy:0;vgz:0;templ:93;temph:96;tof:10;h:0;bat:50;baro:90.86;time:0;agx:10.00;agy:5.00;agz:-999.00;\r\n'
Adres IP klienta:('192.168.1.197', 8889)
 Wiadomosc od klienta:b'mid:-2;x:-200;y:-200;z:-200;mpry:0,0,0;pitch:0;roll:0;yaw:-47;vgx:0;vgy:0;vgz:0;templ:93;temph:96;tof:10;h:0;bat:50;baro:90.86;time:0;agx:0.00;agy:-5.00;agz:-1001.00;\r\n'
Adres IP klienta:('192.168.1.197', 8889)
 Wiadomosc od klienta:b'mid:-2;x:-200;y:-200;z:-200;mpry:0,0,0;pitch:0;roll:0;yaw:-47;vgx:0;vgy:0;vgz:0;templ:94;temph:97;tof:10;h:0;bat:50;baro:90.87;time:0;agx:5.00;agy:6.00;agz:-997.00;\r\n'
Adres IP klienta:('192.168.1.197', 8889)
 Wiadomosc od klienta:b'mid:-2;x:-200;y:-200;z:-200;mpry:0,0,0;pitch:0;roll:0;yaw:-47;vgx:0;vgy:0;vgz:0;templ:94;temph:97;tof:10;h:0;bat:50;baro:90.86;time:0;agx:8.00;agy:0.00;agz:-1000.00;\r\n'
Adres IP klienta:('192.168.1.197', 8889)
 Wiadomosc od klienta:b'mid:-2;x:-200;y:-200;z:-200;mpry:0,0,0;pitch:0;roll:0;yaw:-47;vgx:0;vgy:0;vgz:0;templ:94;temph:97;tof:10;h:0;bat:50;baro:90.88;time:0;agx:3.00;agy:3.00;agz:-998.00;\r\n'
Adres IP klienta:('192.168.1.197', 8889)
 Wiadomosc od klienta:b'mid:-2;x:-200;y:-200;z:-200;mpry:0,0,0;pitch:0;roll:0;yaw:-47;vgx:0;vgy:0;vgz:0;templ:94;temph:97;tof:10;h:0;bat:50;baro:90.87;time:0;agx:3.00;agy:2.00;agz:-1001.00;\r\n'
Adres IP klienta:('192.168.1.197', 8889)
 Wiadomosc od klienta:b'mid:-2;x:-200;y:-200;z:-200;mpry:0,0,0;pitch:0;roll:0;yaw:-47;vgx:0;vgy:0;vgz:0;templ:94;temph:97;tof:10;h:0;bat:50;baro:90.89;time:0;agx:5.00;agy:1.00;agz:-1000.00;\r\n'
Adres IP klienta:('192.168.1.197', 8889)
 Wiadomosc od klienta:b'mid:-2;x:-200;y:-200;z:-200;mpry:0,0,0;pitch:0;roll:0;yaw:-47;vgx:0;vgy:0;vgz:0;templ:94;temph:97;tof:10;h:0;bat:50;baro:90.89;time:0;agx:6.00;agy:2.00;agz:-998.00;\r\n'
Adres IP klienta:('192.168.1.197', 8889)
 Wiadomosc od klienta:b'mid:-2;x:-200;y:-200;z:-200;mpry:0,0,0;pitch:0;roll:0;yaw:-47;vgx:0;vgy:0;vgz:0;templ:94;temph:97;tof:10;h:0;bat:50;baro:90.89;time:0;agx:5.00;agy:2.00;agz:-1002.00;\r\n'
Adres IP klienta:('192.168.1.197', 8889)
 Wiadomosc od klienta:b'mid:-2;x:-200;y:-200;z:-200;mpry:0,0,0;pitch:0;roll:0;yaw:-47;vgx:0;vgy:0;vgz:0;templ:94;temph:97;tof:10;h:0;bat:50;baro:90.90;time:0;agx:4.00;agy:0.00;agz:-1000.00;\r\n'
Adres IP klienta:('192.168.1.197', 8889)
 Wiadomosc od klienta:b'mid:-2;x:-200;y:-200;z:-200;mpry:0,0,0;pitch:0;roll:0;yaw:-47;vgx:0;vgy:0;vgz:0;templ:94;temph:97;tof:10;h:0;bat:50;baro:90.93;time:0;agx:4.00;agy:4.00;agz:-999.00;\r\n'
Adres IP klienta:('192.168.1.197', 8889)
 Wiadomosc od klienta:b'mid:-2;x:-200;y:-200;z:-200;mpry:0,0,0;pitch:0;roll:0;yaw:-47;vgx:0;vgy:0;vgz:0;templ:94;temph:97;tof:10;h:0;bat:50;baro:90.87;time:0;agx:3.00;agy:0.00;agz:-1001.00;\r\n'
Adres IP klienta:('192.168.1.197', 8889)
 Wiadomosc od klienta:b'mid:-2;x:-200;y:-200;z:-200;mpry:0,0,0;pitch:0;roll:0;yaw:-47;vgx:0;vgy:0;vgz:0;templ:92;temph:96;tof:10;h:0;bat:50;baro:90.88;time:0;agx:2.00;agy:0.00;agz:-1000.00;\r\n'
Adres IP klienta:('192.168.1.197', 8889)
 Wiadomosc od klienta:b'mid:-2;x:-200;y:-200;z:-200;mpry:0,0,0;pitch:0;roll:0;yaw:-47;vgx:0;vgy:0;vgz:0;templ:92;temph:96;tof:10;h:0;bat:50;baro:90.86;time:0;agx:4.00;agy:3.00;agz:-1002.00;\r\n'
Adres IP klienta:('192.168.1.197', 8889)
 Wiadomosc od klienta:b'mid:-2;x:-200;y:-200;z:-200;mpry:0,0,0;pitch:0;roll:0;yaw:-47;vgx:0;vgy:0;vgz:0;templ:92;temph:96;tof:10;h:0;bat:50;baro:90.87;time:0;agx:3.00;agy:-1.00;agz:-1000.00;\r\n'
Adres IP klienta:('192.168.1.197', 8889)
 Wiadomosc od klienta:b'mid:-2;x:-200;y:-200;z:-200;mpry:0,0,0;pitch:0;roll:0;yaw:-47;vgx:0;vgy:0;vgz:0;templ:92;temph:96;tof:10;h:0;bat:50;baro:90.88;time:0;agx:5.00;agy:2.00;agz:-1002.00;\r\n'
Adres IP klienta:('192.168.1.197', 8889)
 Wiadomosc od klienta:b'mid:-2;x:-200;y:-200;z:-200;mpry:0,0,0;pitch:0;roll:0;yaw:-47;vgx:0;vgy:0;vgz:0;templ:92;temph:96;tof:10;h:0;bat:50;baro:90.93;time:0;agx:5.00;agy:3.00;agz:-999.00;\r\n'
Adres IP klienta:('192.168.1.197', 8889)
 Wiadomosc od klienta:b'mid:-2;x:-200;y:-200;z:-200;mpry:0,0,0;pitch:0;roll:0;yaw:-47;vgx:0;vgy:0;vgz:0;templ:92;temph:96;tof:10;h:0;bat:50;baro:90.87;time:0;agx:3.00;agy:-2.00;agz:-998.00;\r\n'
Adres IP klienta:('192.168.1.197', 8889)
 Wiadomosc od klienta:b'mid:-2;x:-200;y:-200;z:-200;mpry:0,0,0;pitch:0;roll:0;yaw:-47;vgx:0;vgy:0;vgz:0;templ:92;temph:96;tof:10;h:0;bat:50;baro:90.92;time:0;agx:6.00;agy:7.00;agz:-1000.00;\r\n'
Adres IP klienta:('192.168.1.197', 8889)
 Wiadomosc od klienta:b'mid:-2;x:-200;y:-200;z:-200;mpry:0,0,0;pitch:0;roll:0;yaw:-47;vgx:0;vgy:0;vgz:0;templ:92;temph:96;tof:10;h:0;bat:50;baro:90.92;time:0;agx:6.00;agy:0.00;agz:-1000.00;\r\n'
Adres IP klienta:('192.168.1.197', 8889)
 Wiadomosc od klienta:b'mid:-2;x:-200;y:-200;z:-200;mpry:0,0,0;pitch:0;roll:0;yaw:-47;vgx:0;vgy:0;vgz:0;templ:92;temph:96;tof:10;h:0;bat:50;baro:90.95;time:0;agx:3.00;agy:0.00;agz:-996.00;\r\n'
Adres IP klienta:('192.168.1.197', 8889)
 Wiadomosc od klienta:b'mid:-2;x:-200;y:-200;z:-200;mpry:0,0,0;pitch:0;roll:0;yaw:-47;vgx:0;vgy:0;vgz:0;templ:92;temph:96;tof:10;h:0;bat:50;baro:90.93;time:0;agx:5.00;agy:2.00;agz:-1004.00;\r\n'
Adres IP klienta:('192.168.1.197', 8889)
 Wiadomosc od klienta:b'mid:-2;x:-200;y:-200;z:-200;mpry:0,0,0;pitch:0;roll:0;yaw:-47;vgx:0;vgy:0;vgz:0;templ:94;temph:96;tof:10;h:0;bat:50;baro:90.89;time:0;agx:4.00;agy:2.00;agz:-999.00;\r\n'
Adres IP klienta:('192.168.1.197', 8889)
 Wiadomosc od klienta:b'mid:-2;x:-200;y:-200;z:-200;mpry:0,0,0;pitch:0;roll:0;yaw:-47;vgx:0;vgy:0;vgz:0;templ:94;temph:96;tof:10;h:0;bat:50;baro:90.86;time:0;agx:5.00;agy:1.00;agz:-998.00;\r\n'
Adres IP klienta:('192.168.1.197', 8889)
 Wiadomosc od klienta:b'mid:-2;x:-200;y:-200;z:-200;mpry:0,0,0;pitch:0;roll:0;yaw:-47;vgx:0;vgy:0;vgz:0;templ:94;temph:96;tof:10;h:0;bat:50;baro:90.89;time:0;agx:5.00;agy:2.00;agz:-999.00;\r\n'
Adres IP klienta:('192.168.1.197', 8889)
 Wiadomosc od klienta:b'mid:-2;x:-200;y:-200;z:-200;mpry:0,0,0;pitch:0;roll:0;yaw:-47;vgx:0;vgy:0;vgz:0;templ:94;temph:96;tof:10;h:0;bat:50;baro:90.87;time:0;agx:5.00;agy:3.00;agz:-999.00;\r\n'
Adres IP klienta:('192.168.1.197', 8889)
 Wiadomosc od klienta:b'mid:-2;x:-200;y:-200;z:-200;mpry:0,0,0;pitch:0;roll:0;yaw:-47;vgx:0;vgy:0;vgz:0;templ:94;temph:96;tof:10;h:0;bat:50;baro:90.87;time:0;agx:5.00;agy:3.00;agz:-998.00;\r\n'
Adres IP klienta:('192.168.1.197', 8889)
 Wiadomosc od klienta:b'mid:-2;x:-200;y:-200;z:-200;mpry:0,0,0;pitch:0;roll:0;yaw:-47;vgx:0;vgy:0;vgz:0;templ:94;temph:96;tof:10;h:0;bat:50;baro:90.87;time:0;agx:3.00;agy:3.00;agz:-1002.00;\r\n'
Adres IP klienta:('192.168.1.197', 8889)
 Wiadomosc od klienta:b'mid:-2;x:-200;y:-200;z:-200;mpry:0,0,0;pitch:0;roll:0;yaw:-47;vgx:0;vgy:0;vgz:0;templ:94;temph:96;tof:10;h:0;bat:50;baro:90.88;time:0;agx:3.00;agy:3.00;agz:-999.00;\r\n'
Adres IP klienta:('192.168.1.197', 8889)
 Wiadomosc od klienta:b'mid:-2;x:-200;y:-200;z:-200;mpry:0,0,0;pitch:0;roll:0;yaw:-47;vgx:0;vgy:0;vgz:0;templ:94;temph:96;tof:10;h:0;bat:50;baro:90.87;time:0;agx:4.00;agy:0.00;agz:-998.00;\r\n'
Adres IP klienta:('192.168.1.197', 8889)
 Wiadomosc od klienta:b'mid:-2;x:-200;y:-200;z:-200;mpry:0,0,0;pitch:0;roll:0;yaw:-47;vgx:0;vgy:0;vgz:0;templ:94;temph:96;tof:10;h:0;bat:50;baro:90.90;time:0;agx:2.00;agy:3.00;agz:-999.00;\r\n'
Adres IP klienta:('192.168.1.197', 8889)
 Wiadomosc od klienta:b'mid:-2;x:-200;y:-200;z:-200;mpry:0,0,0;pitch:0;roll:0;yaw:-47;vgx:0;vgy:0;vgz:0;templ:94;temph:96;tof:10;h:0;bat:50;baro:90.93;time:0;agx:1.00;agy:0.00;agz:-998.00;\r\n'
Adres IP klienta:('192.168.1.197', 8889)
 Wiadomosc od klienta:b'mid:-2;x:-200;y:-200;z:-200;mpry:0,0,0;pitch:0;roll:0;yaw:-46;vgx:0;vgy:0;vgz:0;templ:93;temph:96;tof:10;h:0;bat:50;baro:90.89;time:0;agx:6.00;agy:2.00;agz:-998.00;\r\n'
Adres IP klienta:('192.168.1.197', 8889)
 Wiadomosc od klienta:b'mid:-2;x:-200;y:-200;z:-200;mpry:0,0,0;pitch:0;roll:0;yaw:-46;vgx:0;vgy:0;vgz:0;templ:93;temph:96;tof:10;h:0;bat:50;baro:90.91;time:0;agx:5.00;agy:0.00;agz:-1001.00;\r\n'
Adres IP klienta:('192.168.1.197', 8889)
 Wiadomosc od klienta:b'mid:-2;x:-200;y:-200;z:-200;mpry:0,0,0;pitch:0;roll:0;yaw:-46;vgx:0;vgy:0;vgz:0;templ:93;temph:96;tof:10;h:0;bat:50;baro:90.90;time:0;agx:3.00;agy:1.00;agz:-1000.00;\r\n'
Adres IP klienta:('192.168.1.197', 8889)
 Wiadomosc od klienta:b'mid:-2;x:-200;y:-200;z:-200;mpry:0,0,0;pitch:0;roll:0;yaw:-46;vgx:0;vgy:0;vgz:0;templ:93;temph:96;tof:10;h:0;bat:50;baro:90.92;time:0;agx:3.00;agy:3.00;agz:-999.00;\r\n'
Adres IP klienta:('192.168.1.197', 8889)
 Wiadomosc od klienta:b'mid:-2;x:-200;y:-200;z:-200;mpry:0,0,0;pitch:0;roll:0;yaw:-47;vgx:0;vgy:0;vgz:0;templ:93;temph:96;tof:10;h:0;bat:50;baro:90.88;time:0;agx:5.00;agy:0.00;agz:-998.00;\r\n'
Adres IP klienta:('192.168.1.197', 8889)
 Wiadomosc od klienta:b'mid:-2;x:-200;y:-200;z:-200;mpry:0,0,0;pitch:0;roll:0;yaw:-47;vgx:0;vgy:0;vgz:0;templ:93;temph:96;tof:10;h:0;bat:50;baro:90.89;time:0;agx:6.00;agy:6.00;agz:-999.00;\r\n'
Adres IP klienta:('192.168.1.197', 8889)
 Wiadomosc od klienta:b'mid:-2;x:-200;y:-200;z:-200;mpry:0,0,0;pitch:0;roll:0;yaw:-47;vgx:0;vgy:0;vgz:0;templ:93;temph:96;tof:10;h:0;bat:50;baro:90.87;time:0;agx:7.00;agy:-3.00;agz:-1000.00;\r\n'
Adres IP klienta:('192.168.1.197', 8889)
 Wiadomosc od klienta:b'mid:-2;x:-200;y:-200;z:-200;mpry:0,0,0;pitch:0;roll:0;yaw:-47;vgx:0;vgy:0;vgz:0;templ:93;temph:96;tof:10;h:0;bat:50;baro:90.90;time:0;agx:4.00;agy:1.00;agz:-998.00;\r\n'
Adres IP klienta:('192.168.1.197', 8889)
 Wiadomosc od klienta:b'mid:-2;x:-200;y:-200;z:-200;mpry:0,0,0;pitch:0;roll:0;yaw:-47;vgx:0;vgy:0;vgz:0;templ:93;temph:96;tof:10;h:0;bat:50;baro:90.85;time:0;agx:6.00;agy:4.00;agz:-1001.00;\r\n'
Adres IP klienta:('192.168.1.197', 8889)
 Wiadomosc od klienta:b'mid:-2;x:-200;y:-200;z:-200;mpry:0,0,0;pitch:0;roll:0;yaw:-47;vgx:0;vgy:0;vgz:0;templ:93;temph:96;tof:10;h:0;bat:50;baro:90.88;time:0;agx:4.00;agy:0.00;agz:-998.00;\r\n'
Adres IP klienta:('192.168.1.197', 8889)
 Wiadomosc od klienta:b'mid:-2;x:-200;y:-200;z:-200;mpry:0,0,0;pitch:0;roll:0;yaw:-47;vgx:0;vgy:0;vgz:0;templ:94;temph:96;tof:10;h:0;bat:50;baro:90.89;time:0;agx:4.00;agy:1.00;agz:-1002.00;\r\n'
Adres IP klienta:('192.168.1.197', 8889)
 Wiadomosc od klienta:b'mid:-2;x:-200;y:-200;z:-200;mpry:0,0,0;pitch:0;roll:0;yaw:-47;vgx:0;vgy:0;vgz:0;templ:94;temph:96;tof:10;h:0;bat:50;baro:90.91;time:0;agx:9.00;agy:5.00;agz:-997.00;\r\n'
Adres IP klienta:('192.168.1.197', 8889)
 Wiadomosc od klienta:b'mid:-2;x:-200;y:-200;z:-200;mpry:0,0,0;pitch:0;roll:0;yaw:-47;vgx:0;vgy:0;vgz:0;templ:94;temph:96;tof:10;h:0;bat:50;baro:90.88;time:0;agx:9.00;agy:1.00;agz:-998.00;\r\n'
Adres IP klienta:('192.168.1.197', 8889)
 Wiadomosc od klienta:b'mid:-2;x:-200;y:-200;z:-200;mpry:0,0,0;pitch:0;roll:0;yaw:-47;vgx:0;vgy:0;vgz:0;templ:94;temph:96;tof:10;h:0;bat:50;baro:90.88;time:0;agx:5.00;agy:0.00;agz:-1000.00;\r\n'
Adres IP klienta:('192.168.1.197', 8889)
 Wiadomosc od klienta:b'mid:-2;x:-200;y:-200;z:-200;mpry:0,0,0;pitch:0;roll:0;yaw:-46;vgx:0;vgy:0;vgz:0;templ:94;temph:96;tof:10;h:0;bat:50;baro:90.92;time:0;agx:8.00;agy:0.00;agz:-1000.00;\r\n'
Adres IP klienta:('192.168.1.197', 8889)
 Wiadomosc od klienta:b'mid:-2;x:-200;y:-200;z:-200;mpry:0,0,0;pitch:0;roll:0;yaw:-46;vgx:0;vgy:0;vgz:0;templ:94;temph:96;tof:10;h:0;bat:50;baro:90.91;time:0;agx:5.00;agy:5.00;agz:-1000.00;\r\n'
Adres IP klienta:('192.168.1.197', 8889)
 Wiadomosc od klienta:b'mid:-2;x:-200;y:-200;z:-200;mpry:0,0,0;pitch:0;roll:0;yaw:-46;vgx:0;vgy:0;vgz:0;templ:94;temph:96;tof:10;h:0;bat:50;baro:90.88;time:0;agx:5.00;agy:-3.00;agz:-1008.00;\r\n'
Adres IP klienta:('192.168.1.197', 8889)
 Wiadomosc od klienta:b'mid:-2;x:-200;y:-200;z:-200;mpry:0,0,0;pitch:0;roll:0;yaw:-46;vgx:0;vgy:0;vgz:0;templ:94;temph:96;tof:10;h:0;bat:50;baro:90.84;time:0;agx:12.00;agy:1.00;agz:-1001.00;\r\n'
Adres IP klienta:('192.168.1.197', 8889)
 Wiadomosc od klienta:b'mid:-2;x:-200;y:-200;z:-200;mpry:0,0,0;pitch:0;roll:0;yaw:-46;vgx:0;vgy:0;vgz:0;templ:94;temph:96;tof:10;h:0;bat:50;baro:90.85;time:0;agx:8.00;agy:0.00;agz:-995.00;\r\n'
Adres IP klienta:('192.168.1.197', 8889)
 Wiadomosc od klienta:b'mid:-2;x:-200;y:-200;z:-200;mpry:0,0,0;pitch:0;roll:0;yaw:-46;vgx:0;vgy:0;vgz:0;templ:94;temph:96;tof:10;h:0;bat:50;baro:90.91;time:0;agx:5.00;agy:1.00;agz:-1002.00;\r\n'
Adres IP klienta:('192.168.1.197', 8889)
 Wiadomosc od klienta:b'mid:-2;x:-200;y:-200;z:-200;mpry:0,0,0;pitch:0;roll:0;yaw:-46;vgx:0;vgy:0;vgz:0;templ:94;temph:96;tof:10;h:0;bat:50;baro:90.86;time:0;agx:3.00;agy:1.00;agz:-1001.00;\r\n'
Adres IP klienta:('192.168.1.197', 8889)
 Wiadomosc od klienta:b'mid:-2;x:-200;y:-200;z:-200;mpry:0,0,0;pitch:0;roll:0;yaw:-46;vgx:0;vgy:0;vgz:0;templ:94;temph:96;tof:10;h:0;bat:50;baro:90.87;time:0;agx:2.00;agy:0.00;agz:-1001.00;\r\n'
Adres IP klienta:('192.168.1.197', 8889)
 Wiadomosc od klienta:b'mid:-2;x:-200;y:-200;z:-200;mpry:0,0,0;pitch:0;roll:0;yaw:-46;vgx:0;vgy:0;vgz:0;templ:94;temph:96;tof:10;h:0;bat:50;baro:90.87;time:0;agx:7.00;agy:4.00;agz:-999.00;\r\n'
Adres IP klienta:('192.168.1.197', 8889)
 Wiadomosc od klienta:b'mid:-2;x:-200;y:-200;z:-200;mpry:0,0,0;pitch:0;roll:0;yaw:-46;vgx:0;vgy:0;vgz:0;templ:94;temph:96;tof:10;h:0;bat:50;baro:90.85;time:0;agx:2.00;agy:1.00;agz:-1000.00;\r\n'
Adres IP klienta:('192.168.1.197', 8889)
 Wiadomosc od klienta:b'mid:-2;x:-200;y:-200;z:-200;mpry:0,0,0;pitch:0;roll:0;yaw:-46;vgx:0;vgy:0;vgz:0;templ:94;temph:96;tof:10;h:0;bat:50;baro:90.88;time:0;agx:2.00;agy:3.00;agz:-1001.00;\r\n'
Adres IP klienta:('192.168.1.197', 8889)
 Wiadomosc od klienta:b'mid:-2;x:-200;y:-200;z:-200;mpry:0,0,0;pitch:0;roll:0;yaw:-46;vgx:0;vgy:0;vgz:0;templ:94;temph:96;tof:10;h:0;bat:50;baro:90.90;time:0;agx:5.00;agy:0.00;agz:-1001.00;\r\n'
Adres IP klienta:('192.168.1.197', 8889)
 Wiadomosc od klienta:b'mid:-2;x:-200;y:-200;z:-200;mpry:0,0,0;pitch:0;roll:0;yaw:-46;vgx:0;vgy:0;vgz:0;templ:94;temph:96;tof:10;h:0;bat:50;baro:90.89;time:0;agx:2.00;agy:-1.00;agz:-997.00;\r\n'
Adres IP klienta:('192.168.1.197', 8889)
 Wiadomosc od klienta:b'mid:-2;x:-200;y:-200;z:-200;mpry:0,0,0;pitch:0;roll:0;yaw:-46;vgx:0;vgy:0;vgz:0;templ:94;temph:96;tof:10;h:0;bat:50;baro:90.90;time:0;agx:5.00;agy:0.00;agz:-1000.00;\r\n'
Adres IP klienta:('192.168.1.197', 8889)
 Wiadomosc od klienta:b'mid:-2;x:-200;y:-200;z:-200;mpry:0,0,0;pitch:0;roll:0;yaw:-46;vgx:0;vgy:0;vgz:0;templ:94;temph:96;tof:10;h:0;bat:50;baro:90.91;time:0;agx:6.00;agy:3.00;agz:-1002.00;\r\n'
Adres IP klienta:('192.168.1.197', 8889)
 Wiadomosc od klienta:b'mid:-2;x:-200;y:-200;z:-200;mpry:0,0,0;pitch:0;roll:0;yaw:-46;vgx:0;vgy:0;vgz:0;templ:94;temph:96;tof:10;h:0;bat:50;baro:90.90;time:0;agx:2.00;agy:0.00;agz:-1002.00;\r\n'
Adres IP klienta:('192.168.1.197', 8889)
 Wiadomosc od klienta:b'mid:-2;x:-200;y:-200;z:-200;mpry:0,0,0;pitch:0;roll:0;yaw:-46;vgx:0;vgy:0;vgz:0;templ:94;temph:96;tof:10;h:0;bat:50;baro:90.91;time:0;agx:0.00;agy:6.00;agz:-1000.00;\r\n'
Adres IP klienta:('192.168.1.197', 8889)
 Wiadomosc od klienta:b'mid:-2;x:-200;y:-200;z:-200;mpry:0,0,0;pitch:0;roll:0;yaw:-46;vgx:0;vgy:0;vgz:0;templ:94;temph:96;tof:10;h:0;bat:50;baro:90.89;time:0;agx:0.00;agy:0.00;agz:-999.00;\r\n'
Adres IP klienta:('192.168.1.197', 8889)
 Wiadomosc od klienta:b'mid:-2;x:-200;y:-200;z:-200;mpry:0,0,0;pitch:0;roll:0;yaw:-46;vgx:0;vgy:0;vgz:0;templ:94;temph:96;tof:10;h:0;bat:50;baro:90.92;time:0;agx:0.00;agy:3.00;agz:-999.00;\r\n'
Adres IP klienta:('192.168.1.197', 8889)
 Wiadomosc od klienta:b'mid:-2;x:-200;y:-200;z:-200;mpry:0,0,0;pitch:0;roll:0;yaw:-46;vgx:0;vgy:0;vgz:0;templ:94;temph:96;tof:10;h:0;bat:50;baro:90.90;time:0;agx:2.00;agy:0.00;agz:-1000.00;\r\n'
Adres IP klienta:('192.168.1.197', 8889)
 Wiadomosc od klienta:b'mid:-2;x:-200;y:-200;z:-200;mpry:0,0,0;pitch:0;roll:0;yaw:-46;vgx:0;vgy:0;vgz:0;templ:94;temph:96;tof:10;h:0;bat:50;baro:90.94;time:0;agx:3.00;agy:2.00;agz:-1000.00;\r\n'
Adres IP klienta:('192.168.1.197', 8889)
 Wiadomosc od klienta:b'mid:-2;x:-200;y:-200;z:-200;mpry:0,0,0;pitch:0;roll:0;yaw:-46;vgx:0;vgy:0;vgz:0;templ:94;temph:96;tof:10;h:0;bat:50;baro:90.94;time:0;agx:3.00;agy:0.00;agz:-1000.00;\r\n'
Adres IP klienta:('192.168.1.197', 8889)
 Wiadomosc od klienta:b'mid:-2;x:-200;y:-200;z:-200;mpry:0,0,0;pitch:0;roll:0;yaw:-46;vgx:0;vgy:0;vgz:0;templ:94;temph:96;tof:10;h:0;bat:50;baro:90.94;time:0;agx:3.00;agy:3.00;agz:-1003.00;\r\n'
Adres IP klienta:('192.168.1.197', 8889)
 Wiadomosc od klienta:b'mid:-2;x:-200;y:-200;z:-200;mpry:0,0,0;pitch:0;roll:0;yaw:-46;vgx:0;vgy:0;vgz:0;templ:94;temph:96;tof:10;h:0;bat:50;baro:90.98;time:0;agx:8.00;agy:2.00;agz:-1000.00;\r\n'
Adres IP klienta:('192.168.1.197', 8889)
 Wiadomosc od klienta:b'mid:-2;x:-200;y:-200;z:-200;mpry:0,0,0;pitch:0;roll:0;yaw:-46;vgx:0;vgy:0;vgz:0;templ:94;temph:96;tof:10;h:0;bat:50;baro:90.96;time:0;agx:4.00;agy:0.00;agz:-1000.00;\r\n'
Adres IP klienta:('192.168.1.197', 8889)
 Wiadomosc od klienta:b'mid:-2;x:-200;y:-200;z:-200;mpry:0,0,0;pitch:0;roll:0;yaw:-46;vgx:0;vgy:0;vgz:0;templ:94;temph:96;tof:10;h:0;bat:50;baro:90.89;time:0;agx:-14.00;agy:-3.00;agz:-994.00;\r\n'
Adres IP klienta:('192.168.1.197', 8889)
 Wiadomosc od klienta:b'mid:-2;x:-200;y:-200;z:-200;mpry:0,0,0;pitch:0;roll:0;yaw:-46;vgx:0;vgy:0;vgz:0;templ:94;temph:97;tof:10;h:0;bat:50;baro:90.94;time:0;agx:-4.00;agy:2.00;agz:-1001.00;\r\n'
Adres IP klienta:('192.168.1.197', 8889)
 Wiadomosc od klienta:b'mid:-2;x:-200;y:-200;z:-200;mpry:0,0,0;pitch:0;roll:0;yaw:-46;vgx:0;vgy:0;vgz:0;templ:94;temph:97;tof:10;h:0;bat:50;baro:90.94;time:0;agx:4.00;agy:1.00;agz:-997.00;\r\n'
Adres IP klienta:('192.168.1.197', 8889)
 Wiadomosc od klienta:b'mid:-2;x:-200;y:-200;z:-200;mpry:0,0,0;pitch:0;roll:0;yaw:-46;vgx:0;vgy:0;vgz:0;templ:94;temph:97;tof:10;h:0;bat:50;baro:90.91;time:0;agx:4.00;agy:2.00;agz:-1001.00;\r\n'
Adres IP klienta:('192.168.1.197', 8889)
 Wiadomosc od klienta:b'mid:-2;x:-200;y:-200;z:-200;mpry:0,0,0;pitch:0;roll:0;yaw:-46;vgx:0;vgy:0;vgz:0;templ:94;temph:97;tof:10;h:0;bat:50;baro:90.92;time:0;agx:7.00;agy:0.00;agz:-1000.00;\r\n'
Adres IP klienta:('192.168.1.197', 8889)
 Wiadomosc od klienta:b'mid:-2;x:-200;y:-200;z:-200;mpry:0,0,0;pitch:0;roll:0;yaw:-46;vgx:0;vgy:0;vgz:0;templ:94;temph:97;tof:10;h:0;bat:50;baro:90.96;time:0;agx:2.00;agy:5.00;agz:-1001.00;\r\n'
Adres IP klienta:('192.168.1.197', 8889)
 Wiadomosc od klienta:b'mid:-2;x:-200;y:-200;z:-200;mpry:0,0,0;pitch:0;roll:0;yaw:-46;vgx:0;vgy:0;vgz:0;templ:94;temph:97;tof:10;h:0;bat:50;baro:90.95;time:0;agx:7.00;agy:0.00;agz:-1000.00;\r\n'
Adres IP klienta:('192.168.1.197', 8889)
 Wiadomosc od klienta:b'mid:-2;x:-200;y:-200;z:-200;mpry:0,0,0;pitch:0;roll:0;yaw:-46;vgx:0;vgy:0;vgz:0;templ:94;temph:97;tof:10;h:0;bat:50;baro:90.95;time:0;agx:9.00;agy:4.00;agz:-1001.00;\r\n'
Adres IP klienta:('192.168.1.197', 8889)
 Wiadomosc od klienta:b'mid:-2;x:-200;y:-200;z:-200;mpry:0,0,0;pitch:0;roll:0;yaw:-46;vgx:0;vgy:0;vgz:0;templ:94;temph:97;tof:10;h:0;bat:50;baro:90.94;time:0;agx:3.00;agy:1.00;agz:-1002.00;\r\n'
Adres IP klienta:('192.168.1.197', 8889)
 Wiadomosc od klienta:b'mid:-2;x:-200;y:-200;z:-200;mpry:0,0,0;pitch:0;roll:0;yaw:-46;vgx:0;vgy:0;vgz:0;templ:94;temph:97;tof:10;h:0;bat:50;baro:90.95;time:0;agx:1.00;agy:-6.00;agz:-993.00;\r\n'
Adres IP klienta:('192.168.1.197', 8889)
 Wiadomosc od klienta:b'mid:-2;x:-200;y:-200;z:-200;mpry:0,0,0;pitch:0;roll:0;yaw:-46;vgx:0;vgy:0;vgz:0;templ:94;temph:97;tof:10;h:0;bat:50;baro:90.98;time:0;agx:-7.00;agy:4.00;agz:-1002.00;\r\n'
Adres IP klienta:('192.168.1.197', 8889)
 Wiadomosc od klienta:b'mid:-2;x:-200;y:-200;z:-200;mpry:0,0,0;pitch:0;roll:0;yaw:-46;vgx:0;vgy:0;vgz:0;templ:94;temph:96;tof:10;h:0;bat:50;baro:90.96;time:0;agx:0.00;agy:-1.00;agz:-1000.00;\r\n'
Adres IP klienta:('192.168.1.197', 8889)
 Wiadomosc od klienta:b'mid:-2;x:-200;y:-200;z:-200;mpry:0,0,0;pitch:0;roll:0;yaw:-46;vgx:0;vgy:0;vgz:0;templ:94;temph:96;tof:10;h:0;bat:50;baro:90.94;time:0;agx:3.00;agy:0.00;agz:-1002.00;\r\n'
Adres IP klienta:('192.168.1.197', 8889)
 Wiadomosc od klienta:b'mid:-2;x:-200;y:-200;z:-200;mpry:0,0,0;pitch:0;roll:0;yaw:-46;vgx:0;vgy:0;vgz:0;templ:94;temph:96;tof:10;h:0;bat:50;baro:90.98;time:0;agx:12.00;agy:5.00;agz:-999.00;\r\n'
Adres IP klienta:('192.168.1.197', 8889)
 Wiadomosc od klienta:b'mid:-2;x:-200;y:-200;z:-200;mpry:0,0,0;pitch:0;roll:0;yaw:-46;vgx:0;vgy:0;vgz:0;templ:94;temph:96;tof:10;h:0;bat:50;baro:90.98;time:0;agx:5.00;agy:1.00;agz:-1000.00;\r\n'
Adres IP klienta:('192.168.1.197', 8889)
 Wiadomosc od klienta:b'mid:-2;x:-200;y:-200;z:-200;mpry:0,0,0;pitch:0;roll:0;yaw:-46;vgx:0;vgy:0;vgz:0;templ:94;temph:96;tof:10;h:0;bat:50;baro:90.94;time:0;agx:0.00;agy:0.00;agz:-998.00;\r\n'
Adres IP klienta:('192.168.1.197', 8889)
 Wiadomosc od klienta:b'mid:-2;x:-200;y:-200;z:-200;mpry:0,0,0;pitch:0;roll:0;yaw:-46;vgx:0;vgy:0;vgz:0;templ:94;temph:96;tof:10;h:0;bat:50;baro:90.94;time:0;agx:6.00;agy:5.00;agz:-1000.00;\r\n'
Adres IP klienta:('192.168.1.197', 8889)
 Wiadomosc od klienta:b'mid:-2;x:-200;y:-200;z:-200;mpry:0,0,0;pitch:0;roll:0;yaw:-46;vgx:0;vgy:0;vgz:0;templ:94;temph:96;tof:10;h:0;bat:50;baro:90.93;time:0;agx:2.00;agy:1.00;agz:-1000.00;\r\n'
Adres IP klienta:('192.168.1.197', 8889)
 Wiadomosc od klienta:b'mid:-2;x:-200;y:-200;z:-200;mpry:0,0,0;pitch:0;roll:0;yaw:-46;vgx:0;vgy:0;vgz:0;templ:94;temph:96;tof:10;h:0;bat:50;baro:90.94;time:0;agx:4.00;agy:2.00;agz:-999.00;\r\n'
Adres IP klienta:('192.168.1.197', 8889)
 Wiadomosc od klienta:b'mid:-2;x:-200;y:-200;z:-200;mpry:0,0,0;pitch:0;roll:0;yaw:-46;vgx:0;vgy:0;vgz:0;templ:94;temph:96;tof:10;h:0;bat:50;baro:90.95;time:0;agx:2.00;agy:3.00;agz:-1000.00;\r\n'
Adres IP klienta:('192.168.1.197', 8889)
 Wiadomosc od klienta:b'mid:-2;x:-200;y:-200;z:-200;mpry:0,0,0;pitch:0;roll:0;yaw:-47;vgx:0;vgy:0;vgz:0;templ:94;temph:96;tof:10;h:0;bat:50;baro:90.95;time:0;agx:1.00;agy:0.00;agz:-998.00;\r\n'
Adres IP klienta:('192.168.1.197', 8889)
 Wiadomosc od klienta:b'mid:-2;x:-200;y:-200;z:-200;mpry:0,0,0;pitch:0;roll:0;yaw:-47;vgx:0;vgy:0;vgz:0;templ:94;temph:96;tof:10;h:0;bat:50;baro:90.92;time:0;agx:2.00;agy:0.00;agz:-999.00;\r\n'
Adres IP klienta:('192.168.1.197', 8889)
 Wiadomosc od klienta:b'mid:-2;x:-200;y:-200;z:-200;mpry:0,0,0;pitch:0;roll:0;yaw:-47;vgx:0;vgy:0;vgz:0;templ:94;temph:96;tof:10;h:0;bat:50;baro:90.92;time:0;agx:3.00;agy:2.00;agz:-999.00;\r\n'
Adres IP klienta:('192.168.1.197', 8889)
 Wiadomosc od klienta:b'mid:-2;x:-200;y:-200;z:-200;mpry:0,0,0;pitch:0;roll:0;yaw:-47;vgx:0;vgy:0;vgz:0;templ:94;temph:96;tof:10;h:0;bat:50;baro:90.94;time:0;agx:4.00;agy:0.00;agz:-999.00;\r\n'
Adres IP klienta:('192.168.1.197', 8889)
 Wiadomosc od klienta:b'mid:-2;x:-200;y:-200;z:-200;mpry:0,0,0;pitch:0;roll:0;yaw:-47;vgx:0;vgy:0;vgz:0;templ:94;temph:96;tof:10;h:0;bat:50;baro:90.92;time:0;agx:4.00;agy:0.00;agz:-999.00;\r\n'
Adres IP klienta:('192.168.1.197', 8889)
 Wiadomosc od klienta:b'mid:-2;x:-200;y:-200;z:-200;mpry:0,0,0;pitch:0;roll:0;yaw:-47;vgx:0;vgy:0;vgz:0;templ:94;temph:96;tof:10;h:0;bat:50;baro:90.89;time:0;agx:1.00;agy:-1.00;agz:-1001.00;\r\n'
Adres IP klienta:('192.168.1.197', 8889)
 Wiadomosc od klienta:b'mid:-2;x:-200;y:-200;z:-200;mpry:0,0,0;pitch:0;roll:0;yaw:-47;vgx:0;vgy:0;vgz:0;templ:94;temph:96;tof:10;h:0;bat:50;baro:90.91;time:0;agx:4.00;agy:4.00;agz:-999.00;\r\n'
Adres IP klienta:('192.168.1.197', 8889)
 Wiadomosc od klienta:b'mid:-2;x:-200;y:-200;z:-200;mpry:0,0,0;pitch:0;roll:0;yaw:-47;vgx:0;vgy:0;vgz:0;templ:94;temph:96;tof:10;h:0;bat:50;baro:90.91;time:0;agx:5.00;agy:1.00;agz:-1000.00;\r\n'
Adres IP klienta:('192.168.1.197', 8889)
 Wiadomosc od klienta:b'mid:-2;x:-200;y:-200;z:-200;mpry:0,0,0;pitch:0;roll:0;yaw:-47;vgx:0;vgy:0;vgz:0;templ:94;temph:96;tof:10;h:0;bat:50;baro:90.89;time:0;agx:2.00;agy:1.00;agz:-1001.00;\r\n'
Adres IP klienta:('192.168.1.197', 8889)
 Wiadomosc od klienta:b'mid:-2;x:-200;y:-200;z:-200;mpry:0,0,0;pitch:0;roll:0;yaw:-47;vgx:0;vgy:0;vgz:0;templ:94;temph:96;tof:10;h:0;bat:50;baro:90.87;time:0;agx:5.00;agy:3.00;agz:-999.00;\r\n'
Adres IP klienta:('192.168.1.197', 8889)
 Wiadomosc od klienta:b'mid:-2;x:-200;y:-200;z:-200;mpry:0,0,0;pitch:0;roll:0;yaw:-47;vgx:0;vgy:0;vgz:0;templ:94;temph:96;tof:10;h:0;bat:50;baro:90.90;time:0;agx:2.00;agy:-3.00;agz:-998.00;\r\n'
Adres IP klienta:('192.168.1.197', 8889)
 Wiadomosc od klienta:b'mid:-2;x:-200;y:-200;z:-200;mpry:0,0,0;pitch:0;roll:0;yaw:-47;vgx:0;vgy:0;vgz:0;templ:94;temph:96;tof:10;h:0;bat:50;baro:90.92;time:0;agx:4.00;agy:2.00;agz:-1002.00;\r\n'
Adres IP klienta:('192.168.1.197', 8889)
 Wiadomosc od klienta:b'mid:-2;x:-200;y:-200;z:-200;mpry:0,0,0;pitch:0;roll:0;yaw:-47;vgx:0;vgy:0;vgz:0;templ:94;temph:96;tof:10;h:0;bat:50;baro:90.90;time:0;agx:5.00;agy:1.00;agz:-1001.00;\r\n'
Adres IP klienta:('192.168.1.197', 8889)
 Wiadomosc od klienta:b'mid:-2;x:-200;y:-200;z:-200;mpry:0,0,0;pitch:0;roll:0;yaw:-47;vgx:0;vgy:0;vgz:0;templ:94;temph:96;tof:10;h:0;bat:50;baro:90.94;time:0;agx:2.00;agy:1.00;agz:-1001.00;\r\n'
Adres IP klienta:('192.168.1.197', 8889)
 Wiadomosc od klienta:b'mid:-2;x:-200;y:-200;z:-200;mpry:0,0,0;pitch:0;roll:0;yaw:-47;vgx:0;vgy:0;vgz:0;templ:94;temph:96;tof:10;h:0;bat:50;baro:90.89;time:0;agx:2.00;agy:1.00;agz:-998.00;\r\n'
Adres IP klienta:('192.168.1.197', 8889)
 Wiadomosc od klienta:b'mid:-2;x:-200;y:-200;z:-200;mpry:0,0,0;pitch:0;roll:0;yaw:-47;vgx:0;vgy:0;vgz:0;templ:94;temph:96;tof:10;h:0;bat:50;baro:90.89;time:0;agx:4.00;agy:2.00;agz:-1001.00;\r\n'
Adres IP klienta:('192.168.1.197', 8889)
 Wiadomosc od klienta:b'mid:-2;x:-200;y:-200;z:-200;mpry:0,0,0;pitch:0;roll:0;yaw:-47;vgx:0;vgy:0;vgz:0;templ:94;temph:96;tof:10;h:0;bat:50;baro:90.92;time:0;agx:5.00;agy:1.00;agz:-1000.00;\r\n'
Adres IP klienta:('192.168.1.197', 8889)
 Wiadomosc od klienta:b'mid:-2;x:-200;y:-200;z:-200;mpry:0,0,0;pitch:0;roll:0;yaw:-47;vgx:0;vgy:0;vgz:0;templ:94;temph:96;tof:10;h:0;bat:50;baro:90.90;time:0;agx:2.00;agy:-1.00;agz:-998.00;\r\n'
Adres IP klienta:('192.168.1.197', 8889)
 Wiadomosc od klienta:b'mid:-2;x:-200;y:-200;z:-200;mpry:0,0,0;pitch:0;roll:0;yaw:-47;vgx:0;vgy:0;vgz:0;templ:94;temph:96;tof:10;h:0;bat:50;baro:90.92;time:0;agx:2.00;agy:5.00;agz:-1000.00;\r\n'
Adres IP klienta:('192.168.1.197', 8889)
 Wiadomosc od klienta:b'mid:-2;x:-200;y:-200;z:-200;mpry:0,0,0;pitch:0;roll:0;yaw:-47;vgx:0;vgy:0;vgz:0;templ:94;temph:96;tof:10;h:0;bat:50;baro:90.90;time:0;agx:2.00;agy:-4.00;agz:-1001.00;\r\n'
Adres IP klienta:('192.168.1.197', 8889)
 Wiadomosc od klienta:b'mid:-2;x:-200;y:-200;z:-200;mpry:0,0,0;pitch:0;roll:0;yaw:-47;vgx:0;vgy:0;vgz:0;templ:94;temph:96;tof:10;h:0;bat:50;baro:90.87;time:0;agx:7.00;agy:8.00;agz:-999.00;\r\n'
Adres IP klienta:('192.168.1.197', 8889)
 Wiadomosc od klienta:b'mid:-2;x:-200;y:-200;z:-200;mpry:0,0,0;pitch:0;roll:0;yaw:-47;vgx:0;vgy:0;vgz:0;templ:94;temph:97;tof:10;h:0;bat:50;baro:90.91;time:0;agx:2.00;agy:-6.00;agz:-1001.00;\r\n'
Adres IP klienta:('192.168.1.197', 8889)
 Wiadomosc od klienta:b'mid:-2;x:-200;y:-200;z:-200;mpry:0,0,0;pitch:0;roll:0;yaw:-47;vgx:0;vgy:0;vgz:0;templ:94;temph:97;tof:10;h:0;bat:50;baro:90.91;time:0;agx:4.00;agy:3.00;agz:-1001.00;\r\n'
Adres IP klienta:('192.168.1.197', 8889)
 Wiadomosc od klienta:b'mid:-2;x:-200;y:-200;z:-200;mpry:0,0,0;pitch:0;roll:0;yaw:-47;vgx:0;vgy:0;vgz:0;templ:94;temph:97;tof:10;h:0;bat:50;baro:90.91;time:0;agx:5.00;agy:0.00;agz:-998.00;\r\n'
Adres IP klienta:('192.168.1.197', 8889)
 Wiadomosc od klienta:b'mid:-2;x:-200;y:-200;z:-200;mpry:0,0,0;pitch:0;roll:0;yaw:-47;vgx:0;vgy:0;vgz:0;templ:94;temph:97;tof:10;h:0;bat:50;baro:90.91;time:0;agx:3.00;agy:2.00;agz:-1000.00;\r\n'
Adres IP klienta:('192.168.1.197', 8889)
 Wiadomosc od klienta:b'mid:-2;x:-200;y:-200;z:-200;mpry:0,0,0;pitch:0;roll:0;yaw:-47;vgx:0;vgy:0;vgz:0;templ:94;temph:97;tof:10;h:0;bat:50;baro:90.94;time:0;agx:5.00;agy:0.00;agz:-1002.00;\r\n'
Adres IP klienta:('192.168.1.197', 8889)
 Wiadomosc od klienta:b'mid:-2;x:-200;y:-200;z:-200;mpry:0,0,0;pitch:0;roll:0;yaw:-47;vgx:0;vgy:0;vgz:0;templ:94;temph:97;tof:10;h:0;bat:50;baro:90.89;time:0;agx:5.00;agy:0.00;agz:-1000.00;\r\n'
Adres IP klienta:('192.168.1.197', 8889)
 Wiadomosc od klienta:b'mid:-2;x:-200;y:-200;z:-200;mpry:0,0,0;pitch:0;roll:0;yaw:-47;vgx:0;vgy:0;vgz:0;templ:94;temph:97;tof:10;h:0;bat:50;baro:90.87;time:0;agx:3.00;agy:3.00;agz:-999.00;\r\n'
Adres IP klienta:('192.168.1.197', 8889)
 Wiadomosc od klienta:b'mid:-2;x:-200;y:-200;z:-200;mpry:0,0,0;pitch:0;roll:0;yaw:-47;vgx:0;vgy:0;vgz:0;templ:94;temph:97;tof:10;h:0;bat:50;baro:90.84;time:0;agx:2.00;agy:1.00;agz:-999.00;\r\n'
Adres IP klienta:('192.168.1.197', 8889)
 Wiadomosc od klienta:b'mid:-2;x:-200;y:-200;z:-200;mpry:0,0,0;pitch:0;roll:0;yaw:-47;vgx:0;vgy:0;vgz:0;templ:94;temph:97;tof:10;h:0;bat:50;baro:90.84;time:0;agx:-2.00;agy:0.00;agz:-1001.00;\r\n'
Adres IP klienta:('192.168.1.197', 8889)
 Wiadomosc od klienta:b'mid:-2;x:-200;y:-200;z:-200;mpry:0,0,0;pitch:0;roll:0;yaw:-47;vgx:0;vgy:0;vgz:0;templ:94;temph:97;tof:10;h:0;bat:50;baro:90.85;time:0;agx:-2.00;agy:2.00;agz:-1000.00;\r\n'
Adres IP klienta:('192.168.1.197', 8889)
 Wiadomosc od klienta:b'mid:-2;x:-200;y:-200;z:-200;mpry:0,0,0;pitch:0;roll:0;yaw:-47;vgx:0;vgy:0;vgz:0;templ:94;temph:97;tof:10;h:0;bat:50;baro:90.82;time:0;agx:1.00;agy:1.00;agz:-999.00;\r\n'
Adres IP klienta:('192.168.1.197', 8889)
